=~=~=~=~=~=~=~=~=~=~=~= PuTTY log 2014.06.04 21:37:13 =~=~=~=~=~=~=~=~=~=~=~=

cmd:
cmd:o break oth 3 test
Invalid Command
cmd:
NOCALL>CQ:00149The quick brown fox jumps over the lazy dog

NOCALL>CQ:00150The quick brown fox jumps over the lazy dog

NOCALL>CQ:00151The quick brown fox jumps over the lazy dog

NOCALL>CQ:00152The quick brown fox jumps over the lazy dog

NOCALL>CQ:00153The quick brown fox jumps over the lazy dog

NOCALL>CQ:00154The quick brown fox jumps over the lazy dog

NOCALL>CQ:00155The quick brown fox jumps over the lazy dog

NOCALL>CQ:00156The quick brown fox jumps over the lazy dog

NOCALL>CQ:00157The quick brown fox jumps over the lazy dog

NOCALL>CQ:00158The quick brown fox jumps over the lazy dog

NOCALL>CQ:00159The quick brown fox jumps over the lazy dog

NOCALL>CQ:00160The quick brown fox jumps over the lazy dog

NOCALL>CQ:00161The quick brown fox jumps over the lazy dog

NOCALL>CQ:00162The quick brown fox jumps over the lazy dog

NOCALL>CQ:00163The quick brown fox jumps over the lazy dog

NOCALL>CQ:00164The quick brown fox jumps over the lazy dog

NOCALL>CQ:00165The quick brown fox jumps over the lazy dog

NOCALL>CQ:00166The quick brown fox jumps over the lazy dog

NOCALL>CQ:00167The quick brown fox jumps over the lazy dog

NOCALL>CQ:00168The quick brown fox jumps over the lazy dog

NOCALL>CQ:00169The quick brown fox jumps over the lazy dog

NOCALL>CQ:00170The quick brown fox jumps over the lazy dog

NOCALL>CQ:00171The quick brown fox jumps over the lazy dog

NOCALL>CQ:00172The quick brown fox jumps over the lazy dog

NOCALL>CQ:00173The quick brown fox jumps over the lazy dog

NOCALL>CQ:00174The quick brown fox jumps over the lazy dog

NOCALL>CQ:00175The quick brown fox jumps over the lazy dog

NOCALL>CQ:00176The quick brown fox jumps over the lazy dog

NOCALL>CQ:00177The quick brown fox jumps over the lazy dog

NOCALL>CQ:00178The quick brown fox jumps over the lazy dog

NOCALL>CQ:00179The quick brown fox jumps over the lazy dog

NOCALL>CQ:00180The quick brown fox jumps over the lazy dog

NOCALL>CQ:00181The quick brown fox jumps over the lazy dog

NOCALL>CQ:00182The quick brown fox jumps over the lazy dog

NOCALL>CQ:00183The quick brown fox jumps over the lazy dog

NOCALL>CQ:00184The quick brown fox jumps over the lazy dog

NOCALL>CQ:00185The quick brown fox jumps over the lazy dog

NOCALL>CQ:00186The quick brown fox jumps over the lazy dog

NOCALL>CQ:00187The quick brown fox jumps over the lazy dog

NOCALL>CQ:00188The quick brown fox jumps over the lazy dog

cmd:
cmd:ot  break oth 3 test with noise
NOCALL>CQ:00149The quick brown fox jumps over the lazy dog
cmd:break ot3 test with noise
NOCALL>CQ:00150The quick brown fox jumps over the lazy dog
cmd:break ot3 test with noise
NOCALL>CQ:00151The quick brown fox jumps over the lazy dog
cmd:break ot3 test with noise
NOCALL>CQ:00153The quick brown fox jumps over the lazy dog
cmd:break ot3 test with noise
NOCALL>CQ:00155The quick brown fox jumps over the lazy dog
cmd:break ot3 test with noise
Invalid Command
cmd:
cmd:[A[B    
cmd:ot3 test with noise
Invalid Command
cmd:
NOCALL>CQ:00149The quick brown fox jumps over the lazy dog

NOCALL>CQ:00150The quick brown fox jumps over the lazy dog

NOCALL>CQ:00151The quick brown fox jumps over the lazy dog

NOCALL>CQ:00153The quick brown fox jumps over the lazy dog

NOCALL>CQ:00155The quick brown fox jumps over the lazy dog

cmd:
cmd:g break generated 2000 
Invalid Command
cmd:
KK6BQJ>APRS,WIDE1-1,WIDE2-1:!3518.11N/12039.80EWZ CNT: 0
$GPWPL,3518.11,N,12039.80,E,KK6BQJ*2A
$PGRMW,KK6BQJ,0,0012,Z CNT: 0*0A

KK6BQJ>APRS,WIDE1-1,WIDE2-1:!3518.11N/12039.80EWZ CNT: 1
$GPWPL,3518.11,N,12039.80,E,KK6BQJ*2A
$PGRMW,KK6BQJ,0,0012,Z CNT: 1*0B

KK6BQJ>APRS,WIDE1-1,WIDE2-1:!3518.11N/12039.80EWZ CNT: 2
$GPWPL,3518.11,N,12039.80,E,KK6BQJ*2A
$PGRMW,KK6BQJ,0,0012,Z CNT: 2*08

KK6BQJ>APRS,WIDE1-1,WIDE2-1:!3518.11N/12039.80EWZ CNT: 3
$GPWPL,3518.11,N,12039.80,E,KK6BQJ*2A
$PGRMW,KK6BQJ,0,0012,Z CNT: 3*09

KK6BQJ>APRS,WIDE1-1,WIDE2-1:!3518.11N/12039.80EWZ CNT: 4
$GPWPL,3518.11,N,12039.80,E,KK6BQJ*2A
$PGRMW,KK6BQJ,0,0012,Z CNT: 4*0E

KK6BQJ>APRS,WIDE1-1,WIDE2-1:!3518.11N/12039.80EWZ CNT: 5
$GPWPL,3518.11,N,12039.80,E,KK6BQJ*2A
$PGRMW,KK6BQJ,0,0012,Z CNT: 5*0F

KK6BQJ>APRS,WIDE1-1,WIDE2-1:!3518.11N/12039.80EWZ CNT: 6
$GPWPL,3518.11,N,12039.80,E,KK6BQJ*2A
$PGRMW,KK6BQJ,0,0012,Z CNT: 6*0C

KK6BQJ>APRS,WIDE1-1,WIDE2-1:!3518.11N/12039.80EWZ CNT: 7
$GPWPL,3518.11,N,12039.80,E,KK6BQJ*2A
$PGRMW,KK6BQJ,0,0012,Z CNT: 7*0D

KK6BQJ>APRS,WIDE1-1,WIDE2-1:!3518.11N/12039.80EWZ CNT: 8
$GPWPL,3518.11,N,12039.80,E,KK6BQJ*2A
$PGRMW,KK6BQJ,0,0012,Z CNT: 8*02

KK6BQJ>APRS,WIDE1-1,WIDE2-1:!3518.11N/12039.80EWZ CNT: 9
$GPWPL,3518.11,N,12039.80,E,KK6BQJ*2A
$PGRMW,KK6BQJ,0,0012,Z CNT: 9*03

KK6BQJ>APRS,WIDE1-1,WIDE2-1:!3518.11N/12039.80EWZ CNT: 10
$GPWPL,3518.11,N,12039.80,E,KK6BQJ*2A
$PGRMW,KK6BQJ,0,0012,Z CNT: 10*3B

KK6BQJ>APRS,WIDE1-1,WIDE2-1:!3518.11N/12039.80EWZ CNT: 11
$GPWPL,3518.11,N,12039.80,E,KK6BQJ*2A
$PGRMW,KK6BQJ,0,0012,Z CNT: 11*3A

KK6BQJ>APRS,WIDE1-1,WIDE2-1:!3518.11N/12039.80EWZ CNT: 12
$GPWPL,3518.11,N,12039.80,E,KK6BQJ*2A
$PGRMW,KK6BQJ,0,0012,Z CNT: 12*39

KK6BQJ>APRS,WIDE1-1,WIDE2-1:!3518.11N/12039.80EWZ CNT: 13
$GPWPL,3518.11,N,12039.80,E,KK6BQJ*2A
$PGRMW,KK6BQJ,0,0012,Z CNT: 13*38

KK6BQJ>APRS,WIDE1-1,WIDE2-1:!3518.11N/12039.80EWZ CNT: 14
$GPWPL,3518.11,N,12039.80,E,KK6BQJ*2A
$PGRMW,KK6BQJ,0,0012,Z CNT: 14*3F

KK6BQJ>APRS,WIDE1-1,WIDE2-1:!3518.11N/12039.80EWZ CNT: 15
$GPWPL,3518.11,N,12039.80,E,KK6BQJ*2A
$PGRMW,KK6BQJ,0,0012,Z CNT: 15*3E

KK6BQJ>APRS,WIDE1-1,WIDE2-1:!3518.11N/12039.80EWZ CNT: 16
$GPWPL,3518.11,N,12039.80,E,KK6BQJ*2A
$PGRMW,KK6BQJ,0,0012,Z CNT: 16*3D

KK6BQJ>APRS,WIDE1-1,WIDE2-1:!3518.11N/12039.80EWZ CNT: 17
$GPWPL,3518.11,N,12039.80,E,KK6BQJ*2A
$PGRMW,KK6BQJ,0,0012,Z CNT: 17*3C

KK6BQJ>APRS,WIDE1-1,WIDE2-1:!3518.11N/12039.80EWZ CNT: 18
$GPWPL,3518.11,N,12039.80,E,KK6BQJ*2A
$PGRMW,KK6BQJ,0,0012,Z CNT: 18*33

KK6BQJ>APRS,WIDE1-1,WIDE2-1:!3518.11N/12039.80EWZ CNT: 19
$GPWPL,3518.11,N,12039.80,E,KK6BQJ*2A
$PGRMW,KK6BQJ,0,0012,Z CNT: 19*32

KK6BQJ>APRS,WIDE1-1,WIDE2-1:!3518.11N/12039.80EWZ CNT: 20
$GPWPL,3518.11,N,12039.80,E,KK6BQJ*2A
$PGRMW,KK6BQJ,0,0012,Z CNT: 20*38

KK6BQJ>APRS,WIDE1-1,WIDE2-1:!3518.11N/12039.80EWZ CNT: 21
$GPWPL,3518.11,N,12039.80,E,KK6BQJ*2A
$PGRMW,KK6BQJ,0,0012,Z CNT: 21*39

KK6BQJ>APRS,WIDE1-1,WIDE2-1:!3518.11N/12039.80EWZ CNT: 22
$GPWPL,3518.11,N,12039.80,E,KK6BQJ*2A
$PGRMW,KK6BQJ,0,0012,Z CNT: 22*3A

KK6BQJ>APRS,WIDE1-1,WIDE2-1:!3518.11N/12039.80EWZ CNT: 23
$GPWPL,3518.11,N,12039.80,E,KK6BQJ*2A
$PGRMW,KK6BQJ,0,0012,Z CNT: 23*3B

KK6BQJ>APRS,WIDE1-1,WIDE2-1:!3518.11N/12039.80EWZ CNT: 24
$GPWPL,3518.11,N,12039.80,E,KK6BQJ*2A
$PGRMW,KK6BQJ,0,0012,Z CNT: 24*3C

KK6BQJ>APRS,WIDE1-1,WIDE2-1:!3518.11N/12039.80EWZ CNT: 25
$GPWPL,3518.11,N,12039.80,E,KK6BQJ*2A
$PGRMW,KK6BQJ,0,0012,Z CNT: 25*3D

KK6BQJ>APRS,WIDE1-1,WIDE2-1:!3518.11N/12039.80EWZ CNT: 26
$GPWPL,3518.11,N,12039.80,E,KK6BQJ*2A
$PGRMW,KK6BQJ,0,0012,Z CNT: 26*3E

KK6BQJ>APRS,WIDE1-1,WIDE2-1:!3518.11N/12039.80EWZ CNT: 27
$GPWPL,3518.11,N,12039.80,E,KK6BQJ*2A
$PGRMW,KK6BQJ,0,0012,Z CNT: 27*3F

KK6BQJ>APRS,WIDE1-1,WIDE2-1:!3518.11N/12039.80EWZ CNT: 28
$GPWPL,3518.11,N,12039.80,E,KK6BQJ*2A
$PGRMW,KK6BQJ,0,0012,Z CNT: 28*30

KK6BQJ>APRS,WIDE1-1,WIDE2-1:!3518.11N/12039.80EWZ CNT: 29
$GPWPL,3518.11,N,12039.80,E,KK6BQJ*2A
$PGRMW,KK6BQJ,0,0012,Z CNT: 29*31

KK6BQJ>APRS,WIDE1-1,WIDE2-1:!3518.11N/12039.80EWZ CNT: 30
$GPWPL,3518.11,N,12039.80,E,KK6BQJ*2A
$PGRMW,KK6BQJ,0,0012,Z CNT: 30*39

KK6BQJ>APRS,WIDE1-1,WIDE2-1:!3518.11N/12039.80EWZ CNT: 31
$GPWPL,3518.11,N,12039.80,E,KK6BQJ*2A
$PGRMW,KK6BQJ,0,0012,Z CNT: 31*38

KK6BQJ>APRS,WIDE1-1,WIDE2-1:!3518.11N/12039.80EWZ CNT: 32
$GPWPL,3518.11,N,12039.80,E,KK6BQJ*2A
$PGRMW,KK6BQJ,0,0012,Z CNT: 32*3B

KK6BQJ>APRS,WIDE1-1,WIDE2-1:!3518.11N/12039.80EWZ CNT: 33
$GPWPL,3518.11,N,12039.80,E,KK6BQJ*2A
$PGRMW,KK6BQJ,0,0012,Z CNT: 33*3A

KK6BQJ>APRS,WIDE1-1,WIDE2-1:!3518.11N/12039.80EWZ CNT: 34
$GPWPL,3518.11,N,12039.80,E,KK6BQJ*2A
$PGRMW,KK6BQJ,0,0012,Z CNT: 34*3D

KK6BQJ>APRS,WIDE1-1,WIDE2-1:!3518.11N/12039.80EWZ CNT: 35
$GPWPL,3518.11,N,12039.80,E,KK6BQJ*2A
$PGRMW,KK6BQJ,0,0012,Z CNT: 35*3C

KK6BQJ>APRS,WIDE1-1,WIDE2-1:!3518.11N/12039.80EWZ CNT: 36
$GPWPL,3518.11,N,12039.80,E,KK6BQJ*2A
$PGRMW,KK6BQJ,0,0012,Z CNT: 36*3F

KK6BQJ>APRS,WIDE1-1,WIDE2-1:!3518.11N/12039.80EWZ CNT: 37
$GPWPL,3518.11,N,12039.80,E,KK6BQJ*2A
$PGRMW,KK6BQJ,0,0012,Z CNT: 37*3E

KK6BQJ>APRS,WIDE1-1,WIDE2-1:!3518.11N/12039.80EWZ CNT: 38
$GPWPL,3518.11,N,12039.80,E,KK6BQJ*2A
$PGRMW,KK6BQJ,0,0012,Z CNT: 38*31

KK6BQJ>APRS,WIDE1-1,WIDE2-1:!3518.11N/12039.80EWZ CNT: 39
$GPWPL,3518.11,N,12039.80,E,KK6BQJ*2A
$PGRMW,KK6BQJ,0,0012,Z CNT: 39*30

KK6BQJ>APRS,WIDE1-1,WIDE2-1:!3518.11N/12039.80EWZ CNT: 40
$GPWPL,3518.11,N,12039.80,E,KK6BQJ*2A
$PGRMW,KK6BQJ,0,0012,Z CNT: 40*3E

KK6BQJ>APRS,WIDE1-1,WIDE2-1:!3518.11N/12039.80EWZ CNT: 41
$GPWPL,3518.11,N,12039.80,E,KK6BQJ*2A
$PGRMW,KK6BQJ,0,0012,Z CNT: 41*3F

KK6BQJ>APRS,WIDE1-1,WIDE2-1:!3518.11N/12039.80EWZ CNT: 42
$GPWPL,3518.11,N,12039.80,E,KK6BQJ*2A
$PGRMW,KK6BQJ,0,0012,Z CNT: 42*3C

KK6BQJ>APRS,WIDE1-1,WIDE2-1:!3518.11N/12039.80EWZ CNT: 43
$GPWPL,3518.11,N,12039.80,E,KK6BQJ*2A
$PGRMW,KK6BQJ,0,0012,Z CNT: 43*3D

KK6BQJ>APRS,WIDE1-1,WIDE2-1:!3518.11N/12039.80EWZ CNT: 44
$GPWPL,3518.11,N,12039.80,E,KK6BQJ*2A
$PGRMW,KK6BQJ,0,0012,Z CNT: 44*3A

KK6BQJ>APRS,WIDE1-1,WIDE2-1:!3518.11N/12039.80EWZ CNT: 45
$GPWPL,3518.11,N,12039.80,E,KK6BQJ*2A
$PGRMW,KK6BQJ,0,0012,Z CNT: 45*3B

KK6BQJ>APRS,WIDE1-1,WIDE2-1:!3518.11N/12039.80EWZ CNT: 46
$GPWPL,3518.11,N,12039.80,E,KK6BQJ*2A
$PGRMW,KK6BQJ,0,0012,Z CNT: 46*38

KK6BQJ>APRS,WIDE1-1,WIDE2-1:!3518.11N/12039.80EWZ CNT: 47
$GPWPL,3518.11,N,12039.80,E,KK6BQJ*2A
$PGRMW,KK6BQJ,0,0012,Z CNT: 47*39

KK6BQJ>APRS,WIDE1-1,WIDE2-1:!3518.11N/12039.80EWZ CNT: 48
$GPWPL,3518.11,N,12039.80,E,KK6BQJ*2A
$PGRMW,KK6BQJ,0,0012,Z CNT: 48*36

KK6BQJ>APRS,WIDE1-1,WIDE2-1:!3518.11N/12039.80EWZ CNT: 49
$GPWPL,3518.11,N,12039.80,E,KK6BQJ*2A
$PGRMW,KK6BQJ,0,0012,Z CNT: 49*37

KK6BQJ>APRS,WIDE1-1,WIDE2-1:!3518.11N/12039.80EWZ CNT: 50
$GPWPL,3518.11,N,12039.80,E,KK6BQJ*2A
$PGRMW,KK6BQJ,0,0012,Z CNT: 50*3F

KK6BQJ>APRS,WIDE1-1,WIDE2-1:!3518.11N/12039.80EWZ CNT: 51
$GPWPL,3518.11,N,12039.80,E,KK6BQJ*2A
$PGRMW,KK6BQJ,0,0012,Z CNT: 51*3E

KK6BQJ>APRS,WIDE1-1,WIDE2-1:!3518.11N/12039.80EWZ CNT: 52
$GPWPL,3518.11,N,12039.80,E,KK6BQJ*2A
$PGRMW,KK6BQJ,0,0012,Z CNT: 52*3D

KK6BQJ>APRS,WIDE1-1,WIDE2-1:!3518.11N/12039.80EWZ CNT: 53
$GPWPL,3518.11,N,12039.80,E,KK6BQJ*2A
$PGRMW,KK6BQJ,0,0012,Z CNT: 53*3C

KK6BQJ>APRS,WIDE1-1,WIDE2-1:!3518.11N/12039.80EWZ CNT: 54
$GPWPL,3518.11,N,12039.80,E,KK6BQJ*2A
$PGRMW,KK6BQJ,0,0012,Z CNT: 54*3B

KK6BQJ>APRS,WIDE1-1,WIDE2-1:!3518.11N/12039.80EWZ CNT: 55
$GPWPL,3518.11,N,12039.80,E,KK6BQJ*2A
$PGRMW,KK6BQJ,0,0012,Z CNT: 55*3A

KK6BQJ>APRS,WIDE1-1,WIDE2-1:!3518.11N/12039.80EWZ CNT: 56
$GPWPL,3518.11,N,12039.80,E,KK6BQJ*2A
$PGRMW,KK6BQJ,0,0012,Z CNT: 56*39

KK6BQJ>APRS,WIDE1-1,WIDE2-1:!3518.11N/12039.80EWZ CNT: 57
$GPWPL,3518.11,N,12039.80,E,KK6BQJ*2A
$PGRMW,KK6BQJ,0,0012,Z CNT: 57*38

KK6BQJ>APRS,WIDE1-1,WIDE2-1:!3518.11N/12039.80EWZ CNT: 58
$GPWPL,3518.11,N,12039.80,E,KK6BQJ*2A
$PGRMW,KK6BQJ,0,0012,Z CNT: 58*37

KK6BQJ>APRS,WIDE1-1,WIDE2-1:!3518.11N/12039.80EWZ CNT: 59
$GPWPL,3518.11,N,12039.80,E,KK6BQJ*2A
$PGRMW,KK6BQJ,0,0012,Z CNT: 59*36

KK6BQJ>APRS,WIDE1-1,WIDE2-1:!3518.11N/12039.80EWZ CNT: 60
$GPWPL,3518.11,N,12039.80,E,KK6BQJ*2A
$PGRMW,KK6BQJ,0,0012,Z CNT: 60*3C

KK6BQJ>APRS,WIDE1-1,WIDE2-1:!3518.11N/12039.80EWZ CNT: 61
$GPWPL,3518.11,N,12039.80,E,KK6BQJ*2A
$PGRMW,KK6BQJ,0,0012,Z CNT: 61*3D

KK6BQJ>APRS,WIDE1-1,WIDE2-1:!3518.11N/12039.80EWZ CNT: 62
$GPWPL,3518.11,N,12039.80,E,KK6BQJ*2A
$PGRMW,KK6BQJ,0,0012,Z CNT: 62*3E

KK6BQJ>APRS,WIDE1-1,WIDE2-1:!3518.11N/12039.80EWZ CNT: 63
$GPWPL,3518.11,N,12039.80,E,KK6BQJ*2A
$PGRMW,KK6BQJ,0,0012,Z CNT: 63*3F

KK6BQJ>APRS,WIDE1-1,WIDE2-1:!3518.11N/12039.80EWZ CNT: 64
$GPWPL,3518.11,N,12039.80,E,KK6BQJ*2A
$PGRMW,KK6BQJ,0,0012,Z CNT: 64*38

KK6BQJ>APRS,WIDE1-1,WIDE2-1:!3518.11N/12039.80EWZ CNT: 65
$GPWPL,3518.11,N,12039.80,E,KK6BQJ*2A
$PGRMW,KK6BQJ,0,0012,Z CNT: 65*39

KK6BQJ>APRS,WIDE1-1,WIDE2-1:!3518.11N/12039.80EWZ CNT: 66
$GPWPL,3518.11,N,12039.80,E,KK6BQJ*2A
$PGRMW,KK6BQJ,0,0012,Z CNT: 66*3A

KK6BQJ>APRS,WIDE1-1,WIDE2-1:!3518.11N/12039.80EWZ CNT: 67
$GPWPL,3518.11,N,12039.80,E,KK6BQJ*2A
$PGRMW,KK6BQJ,0,0012,Z CNT: 67*3B

KK6BQJ>APRS,WIDE1-1,WIDE2-1:!3518.11N/12039.80EWZ CNT: 68
$GPWPL,3518.11,N,12039.80,E,KK6BQJ*2A
$PGRMW,KK6BQJ,0,0012,Z CNT: 68*34

KK6BQJ>APRS,WIDE1-1,WIDE2-1:!3518.11N/12039.80EWZ CNT: 69
$GPWPL,3518.11,N,12039.80,E,KK6BQJ*2A
$PGRMW,KK6BQJ,0,0012,Z CNT: 69*35

KK6BQJ>APRS,WIDE1-1,WIDE2-1:!3518.11N/12039.80EWZ CNT: 70
$GPWPL,3518.11,N,12039.80,E,KK6BQJ*2A
$PGRMW,KK6BQJ,0,0012,Z CNT: 70*3D

KK6BQJ>APRS,WIDE1-1,WIDE2-1:!3518.11N/12039.80EWZ CNT: 71
$GPWPL,3518.11,N,12039.80,E,KK6BQJ*2A
$PGRMW,KK6BQJ,0,0012,Z CNT: 71*3C

KK6BQJ>APRS,WIDE1-1,WIDE2-1:!3518.11N/12039.80EWZ CNT: 72
$GPWPL,3518.11,N,12039.80,E,KK6BQJ*2A
$PGRMW,KK6BQJ,0,0012,Z CNT: 72*3F

KK6BQJ>APRS,WIDE1-1,WIDE2-1:!3518.11N/12039.80EWZ CNT: 73
$GPWPL,3518.11,N,12039.80,E,KK6BQJ*2A
$PGRMW,KK6BQJ,0,0012,Z CNT: 73*3E

KK6BQJ>APRS,WIDE1-1,WIDE2-1:!3518.11N/12039.80EWZ CNT: 74
$GPWPL,3518.11,N,12039.80,E,KK6BQJ*2A
$PGRMW,KK6BQJ,0,0012,Z CNT: 74*39

KK6BQJ>APRS,WIDE1-1,WIDE2-1:!3518.11N/12039.80EWZ CNT: 75
$GPWPL,3518.11,N,12039.80,E,KK6BQJ*2A
$PGRMW,KK6BQJ,0,0012,Z CNT: 75*38

KK6BQJ>APRS,WIDE1-1,WIDE2-1:!3518.11N/12039.80EWZ CNT: 76
$GPWPL,3518.11,N,12039.80,E,KK6BQJ*2A
$PGRMW,KK6BQJ,0,0012,Z CNT: 76*3B

KK6BQJ>APRS,WIDE1-1,WIDE2-1:!3518.11N/12039.80EWZ CNT: 77
$GPWPL,3518.11,N,12039.80,E,KK6BQJ*2A
$PGRMW,KK6BQJ,0,0012,Z CNT: 77*3A

KK6BQJ>APRS,WIDE1-1,WIDE2-1:!3518.11N/12039.80EWZ CNT: 78
$GPWPL,3518.11,N,12039.80,E,KK6BQJ*2A
$PGRMW,KK6BQJ,0,0012,Z CNT: 78*35

KK6BQJ>APRS,WIDE1-1,WIDE2-1:!3518.11N/12039.80EWZ CNT: 79
$GPWPL,3518.11,N,12039.80,E,KK6BQJ*2A
$PGRMW,KK6BQJ,0,0012,Z CNT: 79*34

KK6BQJ>APRS,WIDE1-1,WIDE2-1:!3518.11N/12039.80EWZ CNT: 80
$GPWPL,3518.11,N,12039.80,E,KK6BQJ*2A
$PGRMW,KK6BQJ,0,0012,Z CNT: 80*32

KK6BQJ>APRS,WIDE1-1,WIDE2-1:!3518.11N/12039.80EWZ CNT: 81
$GPWPL,3518.11,N,12039.80,E,KK6BQJ*2A
$PGRMW,KK6BQJ,0,0012,Z CNT: 81*33

KK6BQJ>APRS,WIDE1-1,WIDE2-1:!3518.11N/12039.80EWZ CNT: 82
$GPWPL,3518.11,N,12039.80,E,KK6BQJ*2A
$PGRMW,KK6BQJ,0,0012,Z CNT: 82*30

KK6BQJ>APRS,WIDE1-1,WIDE2-1:!3518.11N/12039.80EWZ CNT: 83
$GPWPL,3518.11,N,12039.80,E,KK6BQJ*2A
$PGRMW,KK6BQJ,0,0012,Z CNT: 83*31

KK6BQJ>APRS,WIDE1-1,WIDE2-1:!3518.11N/12039.80EWZ CNT: 84
$GPWPL,3518.11,N,12039.80,E,KK6BQJ*2A
$PGRMW,KK6BQJ,0,0012,Z CNT: 84*36

KK6BQJ>APRS,WIDE1-1,WIDE2-1:!3518.11N/12039.80EWZ CNT: 85
$GPWPL,3518.11,N,12039.80,E,KK6BQJ*2A
$PGRMW,KK6BQJ,0,0012,Z CNT: 85*37

KK6BQJ>APRS,WIDE1-1,WIDE2-1:!3518.11N/12039.80EWZ CNT: 86
$GPWPL,3518.11,N,12039.80,E,KK6BQJ*2A
$PGRMW,KK6BQJ,0,0012,Z CNT: 86*34

KK6BQJ>APRS,WIDE1-1,WIDE2-1:!3518.11N/12039.80EWZ CNT: 87
$GPWPL,3518.11,N,12039.80,E,KK6BQJ*2A
$PGRMW,KK6BQJ,0,0012,Z CNT: 87*35

KK6BQJ>APRS,WIDE1-1,WIDE2-1:!3518.11N/12039.80EWZ CNT: 88
$GPWPL,3518.11,N,12039.80,E,KK6BQJ*2A
$PGRMW,KK6BQJ,0,0012,Z CNT: 88*3A

KK6BQJ>APRS,WIDE1-1,WIDE2-1:!3518.11N/12039.80EWZ CNT: 89
$GPWPL,3518.11,N,12039.80,E,KK6BQJ*2A
$PGRMW,KK6BQJ,0,0012,Z CNT: 89*3B

KK6BQJ>APRS,WIDE1-1,WIDE2-1:!3518.11N/12039.80EWZ CNT: 90
$GPWPL,3518.11,N,12039.80,E,KK6BQJ*2A
$PGRMW,KK6BQJ,0,0012,Z CNT: 90*33

KK6BQJ>APRS,WIDE1-1,WIDE2-1:!3518.11N/12039.80EWZ CNT: 91
$GPWPL,3518.11,N,12039.80,E,KK6BQJ*2A
$PGRMW,KK6BQJ,0,0012,Z CNT: 91*32

KK6BQJ>APRS,WIDE1-1,WIDE2-1:!3518.11N/12039.80EWZ CNT: 92
$GPWPL,3518.11,N,12039.80,E,KK6BQJ*2A
$PGRMW,KK6BQJ,0,0012,Z CNT: 92*31

KK6BQJ>APRS,WIDE1-1,WIDE2-1:!3518.11N/12039.80EWZ CNT: 93
$GPWPL,3518.11,N,12039.80,E,KK6BQJ*2A
$PGRMW,KK6BQJ,0,0012,Z CNT: 93*30

KK6BQJ>APRS,WIDE1-1,WIDE2-1:!3518.11N/12039.80EWZ CNT: 94
$GPWPL,3518.11,N,12039.80,E,KK6BQJ*2A
$PGRMW,KK6BQJ,0,0012,Z CNT: 94*37

KK6BQJ>APRS,WIDE1-1,WIDE2-1:!3518.11N/12039.80EWZ CNT: 95
$GPWPL,3518.11,N,12039.80,E,KK6BQJ*2A
$PGRMW,KK6BQJ,0,0012,Z CNT: 95*36

KK6BQJ>APRS,WIDE1-1,WIDE2-1:!3518.11N/12039.80EWZ CNT: 96
$GPWPL,3518.11,N,12039.80,E,KK6BQJ*2A
$PGRMW,KK6BQJ,0,0012,Z CNT: 96*35

KK6BQJ>APRS,WIDE1-1,WIDE2-1:!3518.11N/12039.80EWZ CNT: 97
$GPWPL,3518.11,N,12039.80,E,KK6BQJ*2A
$PGRMW,KK6BQJ,0,0012,Z CNT: 97*34

KK6BQJ>APRS,WIDE1-1,WIDE2-1:!3518.11N/12039.80EWZ CNT: 98
$GPWPL,3518.11,N,12039.80,E,KK6BQJ*2A
$PGRMW,KK6BQJ,0,0012,Z CNT: 98*3B

KK6BQJ>APRS,WIDE1-1,WIDE2-1:!3518.11N/12039.80EWZ CNT: 99
$GPWPL,3518.11,N,12039.80,E,KK6BQJ*2A
$PGRMW,KK6BQJ,0,0012,Z CNT: 99*3A

KK6BQJ>APRS,WIDE1-1,WIDE2-1:!3518.11N/12039.80EWZ CNT: 100
$GPWPL,3518.11,N,12039.80,E,KK6BQJ*2A
$PGRMW,KK6BQJ,0,0012,Z CNT: 100*0B

KK6BQJ>APRS,WIDE1-1,WIDE2-1:!3518.11N/12039.80EWZ CNT: 101
$GPWPL,3518.11,N,12039.80,E,KK6BQJ*2A
$PGRMW,KK6BQJ,0,0012,Z CNT: 101*0A

KK6BQJ>APRS,WIDE1-1,WIDE2-1:!3518.11N/12039.80EWZ CNT: 102
$GPWPL,3518.11,N,12039.80,E,KK6BQJ*2A
$PGRMW,KK6BQJ,0,0012,Z CNT: 102*09

KK6BQJ>APRS,WIDE1-1,WIDE2-1:!3518.11N/12039.80EWZ CNT: 103
$GPWPL,3518.11,N,12039.80,E,KK6BQJ*2A
$PGRMW,KK6BQJ,0,0012,Z CNT: 103*08

KK6BQJ>APRS,WIDE1-1,WIDE2-1:!3518.11N/12039.80EWZ CNT: 104
$GPWPL,3518.11,N,12039.80,E,KK6BQJ*2A
$PGRMW,KK6BQJ,0,0012,Z CNT: 104*0F

KK6BQJ>APRS,WIDE1-1,WIDE2-1:!3518.11N/12039.80EWZ CNT: 105
$GPWPL,3518.11,N,12039.80,E,KK6BQJ*2A
$PGRMW,KK6BQJ,0,0012,Z CNT: 105*0E

KK6BQJ>APRS,WIDE1-1,WIDE2-1:!3518.11N/12039.80EWZ CNT: 106
$GPWPL,3518.11,N,12039.80,E,KK6BQJ*2A
$PGRMW,KK6BQJ,0,0012,Z CNT: 106*0D

KK6BQJ>APRS,WIDE1-1,WIDE2-1:!3518.11N/12039.80EWZ CNT: 107
$GPWPL,3518.11,N,12039.80,E,KK6BQJ*2A
$PGRMW,KK6BQJ,0,0012,Z CNT: 107*0C

KK6BQJ>APRS,WIDE1-1,WIDE2-1:!3518.11N/12039.80EWZ CNT: 108
$GPWPL,3518.11,N,12039.80,E,KK6BQJ*2A
$PGRMW,KK6BQJ,0,0012,Z CNT: 108*03

KK6BQJ>APRS,WIDE1-1,WIDE2-1:!3518.11N/12039.80EWZ CNT: 109
$GPWPL,3518.11,N,12039.80,E,KK6BQJ*2A
$PGRMW,KK6BQJ,0,0012,Z CNT: 109*02

KK6BQJ>APRS,WIDE1-1,WIDE2-1:!3518.11N/12039.80EWZ CNT: 110
$GPWPL,3518.11,N,12039.80,E,KK6BQJ*2A
$PGRMW,KK6BQJ,0,0012,Z CNT: 110*0A

KK6BQJ>APRS,WIDE1-1,WIDE2-1:!3518.11N/12039.80EWZ CNT: 111
$GPWPL,3518.11,N,12039.80,E,KK6BQJ*2A
$PGRMW,KK6BQJ,0,0012,Z CNT: 111*0B

KK6BQJ>APRS,WIDE1-1,WIDE2-1:!3518.11N/12039.80EWZ CNT: 112
$GPWPL,3518.11,N,12039.80,E,KK6BQJ*2A
$PGRMW,KK6BQJ,0,0012,Z CNT: 112*08

KK6BQJ>APRS,WIDE1-1,WIDE2-1:!3518.11N/12039.80EWZ CNT: 113
$GPWPL,3518.11,N,12039.80,E,KK6BQJ*2A
$PGRMW,KK6BQJ,0,0012,Z CNT: 113*09

KK6BQJ>APRS,WIDE1-1,WIDE2-1:!3518.11N/12039.80EWZ CNT: 114
$GPWPL,3518.11,N,12039.80,E,KK6BQJ*2A
$PGRMW,KK6BQJ,0,0012,Z CNT: 114*0E

KK6BQJ>APRS,WIDE1-1,WIDE2-1:!3518.11N/12039.80EWZ CNT: 115
$GPWPL,3518.11,N,12039.80,E,KK6BQJ*2A
$PGRMW,KK6BQJ,0,0012,Z CNT: 115*0F

KK6BQJ>APRS,WIDE1-1,WIDE2-1:!3518.11N/12039.80EWZ CNT: 116
$GPWPL,3518.11,N,12039.80,E,KK6BQJ*2A
$PGRMW,KK6BQJ,0,0012,Z CNT: 116*0C

KK6BQJ>APRS,WIDE1-1,WIDE2-1:!3518.11N/12039.80EWZ CNT: 117
$GPWPL,3518.11,N,12039.80,E,KK6BQJ*2A
$PGRMW,KK6BQJ,0,0012,Z CNT: 117*0D

KK6BQJ>APRS,WIDE1-1,WIDE2-1:!3518.11N/12039.80EWZ CNT: 118
$GPWPL,3518.11,N,12039.80,E,KK6BQJ*2A
$PGRMW,KK6BQJ,0,0012,Z CNT: 118*02

KK6BQJ>APRS,WIDE1-1,WIDE2-1:!3518.11N/12039.80EWZ CNT: 119
$GPWPL,3518.11,N,12039.80,E,KK6BQJ*2A
$PGRMW,KK6BQJ,0,0012,Z CNT: 119*03

KK6BQJ>APRS,WIDE1-1,WIDE2-1:!3518.11N/12039.80EWZ CNT: 120
$GPWPL,3518.11,N,12039.80,E,KK6BQJ*2A
$PGRMW,KK6BQJ,0,0012,Z CNT: 120*09

KK6BQJ>APRS,WIDE1-1,WIDE2-1:!3518.11N/12039.80EWZ CNT: 121
$GPWPL,3518.11,N,12039.80,E,KK6BQJ*2A
$PGRMW,KK6BQJ,0,0012,Z CNT: 121*08

KK6BQJ>APRS,WIDE1-1,WIDE2-1:!3518.11N/12039.80EWZ CNT: 122
$GPWPL,3518.11,N,12039.80,E,KK6BQJ*2A
$PGRMW,KK6BQJ,0,0012,Z CNT: 122*0B

KK6BQJ>APRS,WIDE1-1,WIDE2-1:!3518.11N/12039.80EWZ CNT: 123
$GPWPL,3518.11,N,12039.80,E,KK6BQJ*2A
$PGRMW,KK6BQJ,0,0012,Z CNT: 123*0A

KK6BQJ>APRS,WIDE1-1,WIDE2-1:!3518.11N/12039.80EWZ CNT: 124
$GPWPL,3518.11,N,12039.80,E,KK6BQJ*2A
$PGRMW,KK6BQJ,0,0012,Z CNT: 124*0D

KK6BQJ>APRS,WIDE1-1,WIDE2-1:!3518.11N/12039.80EWZ CNT: 125
$GPWPL,3518.11,N,12039.80,E,KK6BQJ*2A
$PGRMW,KK6BQJ,0,0012,Z CNT: 125*0C

KK6BQJ>APRS,WIDE1-1,WIDE2-1:!3518.11N/12039.80EWZ CNT: 126
$GPWPL,3518.11,N,12039.80,E,KK6BQJ*2A
$PGRMW,KK6BQJ,0,0012,Z CNT: 126*0F

KK6BQJ>APRS,WIDE1-1,WIDE2-1:!3518.11N/12039.80EWZ CNT: 127
$GPWPL,3518.11,N,12039.80,E,KK6BQJ*2A
$PGRMW,KK6BQJ,0,0012,Z CNT: 127*0E

KK6BQJ>APRS,WIDE1-1,WIDE2-1:!3518.11N/12039.80EWZ CNT: 128
$GPWPL,3518.11,N,12039.80,E,KK6BQJ*2A
$PGRMW,KK6BQJ,0,0012,Z CNT: 128*01

KK6BQJ>APRS,WIDE1-1,WIDE2-1:!3518.11N/12039.80EWZ CNT: 129
$GPWPL,3518.11,N,12039.80,E,KK6BQJ*2A
$PGRMW,KK6BQJ,0,0012,Z CNT: 129*00

KK6BQJ>APRS,WIDE1-1,WIDE2-1:!3518.11N/12039.80EWZ CNT: 130
$GPWPL,3518.11,N,12039.80,E,KK6BQJ*2A
$PGRMW,KK6BQJ,0,0012,Z CNT: 130*08

KK6BQJ>APRS,WIDE1-1,WIDE2-1:!3518.11N/12039.80EWZ CNT: 131
$GPWPL,3518.11,N,12039.80,E,KK6BQJ*2A
$PGRMW,KK6BQJ,0,0012,Z CNT: 131*09

KK6BQJ>APRS,WIDE1-1,WIDE2-1:!3518.11N/12039.80EWZ CNT: 132
$GPWPL,3518.11,N,12039.80,E,KK6BQJ*2A
$PGRMW,KK6BQJ,0,0012,Z CNT: 132*0A

KK6BQJ>APRS,WIDE1-1,WIDE2-1:!3518.11N/12039.80EWZ CNT: 133
$GPWPL,3518.11,N,12039.80,E,KK6BQJ*2A
$PGRMW,KK6BQJ,0,0012,Z CNT: 133*0B

KK6BQJ>APRS,WIDE1-1,WIDE2-1:!3518.11N/12039.80EWZ CNT: 134
$GPWPL,3518.11,N,12039.80,E,KK6BQJ*2A
$PGRMW,KK6BQJ,0,0012,Z CNT: 134*0C

KK6BQJ>APRS,WIDE1-1,WIDE2-1:!3518.11N/12039.80EWZ CNT: 135
$GPWPL,3518.11,N,12039.80,E,KK6BQJ*2A
$PGRMW,KK6BQJ,0,0012,Z CNT: 135*0D

KK6BQJ>APRS,WIDE1-1,WIDE2-1:!3518.11N/12039.80EWZ CNT: 136
$GPWPL,3518.11,N,12039.80,E,KK6BQJ*2A
$PGRMW,KK6BQJ,0,0012,Z CNT: 136*0E

KK6BQJ>APRS,WIDE1-1,WIDE2-1:!3518.11N/12039.80EWZ CNT: 137
$GPWPL,3518.11,N,12039.80,E,KK6BQJ*2A
$PGRMW,KK6BQJ,0,0012,Z CNT: 137*0F

KK6BQJ>APRS,WIDE1-1,WIDE2-1:!3518.11N/12039.80EWZ CNT: 138
$GPWPL,3518.11,N,12039.80,E,KK6BQJ*2A
$PGRMW,KK6BQJ,0,0012,Z CNT: 138*00

KK6BQJ>APRS,WIDE1-1,WIDE2-1:!3518.11N/12039.80EWZ CNT: 139
$GPWPL,3518.11,N,12039.80,E,KK6BQJ*2A
$PGRMW,KK6BQJ,0,0012,Z CNT: 139*01

KK6BQJ>APRS,WIDE1-1,WIDE2-1:!3518.11N/12039.80EWZ CNT: 140
$GPWPL,3518.11,N,12039.80,E,KK6BQJ*2A
$PGRMW,KK6BQJ,0,0012,Z CNT: 140*0F

KK6BQJ>APRS,WIDE1-1,WIDE2-1:!3518.11N/12039.80EWZ CNT: 141
$GPWPL,3518.11,N,12039.80,E,KK6BQJ*2A
$PGRMW,KK6BQJ,0,0012,Z CNT: 141*0E

KK6BQJ>APRS,WIDE1-1,WIDE2-1:!3518.11N/12039.80EWZ CNT: 142
$GPWPL,3518.11,N,12039.80,E,KK6BQJ*2A
$PGRMW,KK6BQJ,0,0012,Z CNT: 142*0D

KK6BQJ>APRS,WIDE1-1,WIDE2-1:!3518.11N/12039.80EWZ CNT: 143
$GPWPL,3518.11,N,12039.80,E,KK6BQJ*2A
$PGRMW,KK6BQJ,0,0012,Z CNT: 143*0C

KK6BQJ>APRS,WIDE1-1,WIDE2-1:!3518.11N/12039.80EWZ CNT: 144
$GPWPL,3518.11,N,12039.80,E,KK6BQJ*2A
$PGRMW,KK6BQJ,0,0012,Z CNT: 144*0B

KK6BQJ>APRS,WIDE1-1,WIDE2-1:!3518.11N/12039.80EWZ CNT: 145
$GPWPL,3518.11,N,12039.80,E,KK6BQJ*2A
$PGRMW,KK6BQJ,0,0012,Z CNT: 145*0A

KK6BQJ>APRS,WIDE1-1,WIDE2-1:!3518.11N/12039.80EWZ CNT: 146
$GPWPL,3518.11,N,12039.80,E,KK6BQJ*2A
$PGRMW,KK6BQJ,0,0012,Z CNT: 146*09

KK6BQJ>APRS,WIDE1-1,WIDE2-1:!3518.11N/12039.80EWZ CNT: 147
$GPWPL,3518.11,N,12039.80,E,KK6BQJ*2A
$PGRMW,KK6BQJ,0,0012,Z CNT: 147*08

KK6BQJ>APRS,WIDE1-1,WIDE2-1:!3518.11N/12039.80EWZ CNT: 148
$GPWPL,3518.11,N,12039.80,E,KK6BQJ*2A
$PGRMW,KK6BQJ,0,0012,Z CNT: 148*07

KK6BQJ>APRS,WIDE1-1,WIDE2-1:!3518.11N/12039.80EWZ CNT: 149
$GPWPL,3518.11,N,12039.80,E,KK6BQJ*2A
$PGRMW,KK6BQJ,0,0012,Z CNT: 149*06

KK6BQJ>APRS,WIDE1-1,WIDE2-1:!3518.11N/12039.80EWZ CNT: 150
$GPWPL,3518.11,N,12039.80,E,KK6BQJ*2A
$PGRMW,KK6BQJ,0,0012,Z CNT: 150*0E

KK6BQJ>APRS,WIDE1-1,WIDE2-1:!3518.11N/12039.80EWZ CNT: 151
$GPWPL,3518.11,N,12039.80,E,KK6BQJ*2A
$PGRMW,KK6BQJ,0,0012,Z CNT: 151*0F

KK6BQJ>APRS,WIDE1-1,WIDE2-1:!3518.11N/12039.80EWZ CNT: 152
$GPWPL,3518.11,N,12039.80,E,KK6BQJ*2A
$PGRMW,KK6BQJ,0,0012,Z CNT: 152*0C

KK6BQJ>APRS,WIDE1-1,WIDE2-1:!3518.11N/12039.80EWZ CNT: 153
$GPWPL,3518.11,N,12039.80,E,KK6BQJ*2A
$PGRMW,KK6BQJ,0,0012,Z CNT: 153*0D

KK6BQJ>APRS,WIDE1-1,WIDE2-1:!3518.11N/12039.80EWZ CNT: 154
$GPWPL,3518.11,N,12039.80,E,KK6BQJ*2A
$PGRMW,KK6BQJ,0,0012,Z CNT: 154*0A

KK6BQJ>APRS,WIDE1-1,WIDE2-1:!3518.11N/12039.80EWZ CNT: 155
$GPWPL,3518.11,N,12039.80,E,KK6BQJ*2A
$PGRMW,KK6BQJ,0,0012,Z CNT: 155*0B

KK6BQJ>APRS,WIDE1-1,WIDE2-1:!3518.11N/12039.80EWZ CNT: 156
$GPWPL,3518.11,N,12039.80,E,KK6BQJ*2A
$PGRMW,KK6BQJ,0,0012,Z CNT: 156*08

KK6BQJ>APRS,WIDE1-1,WIDE2-1:!3518.11N/12039.80EWZ CNT: 157
$GPWPL,3518.11,N,12039.80,E,KK6BQJ*2A
$PGRMW,KK6BQJ,0,0012,Z CNT: 157*09

KK6BQJ>APRS,WIDE1-1,WIDE2-1:!3518.11N/12039.80EWZ CNT: 158
$GPWPL,3518.11,N,12039.80,E,KK6BQJ*2A
$PGRMW,KK6BQJ,0,0012,Z CNT: 158*06

KK6BQJ>APRS,WIDE1-1,WIDE2-1:!3518.11N/12039.80EWZ CNT: 159
$GPWPL,3518.11,N,12039.80,E,KK6BQJ*2A
$PGRMW,KK6BQJ,0,0012,Z CNT: 159*07

KK6BQJ>APRS,WIDE1-1,WIDE2-1:!3518.11N/12039.80EWZ CNT: 160
$GPWPL,3518.11,N,12039.80,E,KK6BQJ*2A
$PGRMW,KK6BQJ,0,0012,Z CNT: 160*0D

KK6BQJ>APRS,WIDE1-1,WIDE2-1:!3518.11N/12039.80EWZ CNT: 161
$GPWPL,3518.11,N,12039.80,E,KK6BQJ*2A
$PGRMW,KK6BQJ,0,0012,Z CNT: 161*0C

KK6BQJ>APRS,WIDE1-1,WIDE2-1:!3518.11N/12039.80EWZ CNT: 162
$GPWPL,3518.11,N,12039.80,E,KK6BQJ*2A
$PGRMW,KK6BQJ,0,0012,Z CNT: 162*0F

KK6BQJ>APRS,WIDE1-1,WIDE2-1:!3518.11N/12039.80EWZ CNT: 163
$GPWPL,3518.11,N,12039.80,E,KK6BQJ*2A
$PGRMW,KK6BQJ,0,0012,Z CNT: 163*0E

KK6BQJ>APRS,WIDE1-1,WIDE2-1:!3518.11N/12039.80EWZ CNT: 164
$GPWPL,3518.11,N,12039.80,E,KK6BQJ*2A
$PGRMW,KK6BQJ,0,0012,Z CNT: 164*09

KK6BQJ>APRS,WIDE1-1,WIDE2-1:!3518.11N/12039.80EWZ CNT: 165
$GPWPL,3518.11,N,12039.80,E,KK6BQJ*2A
$PGRMW,KK6BQJ,0,0012,Z CNT: 165*08

KK6BQJ>APRS,WIDE1-1,WIDE2-1:!3518.11N/12039.80EWZ CNT: 166
$GPWPL,3518.11,N,12039.80,E,KK6BQJ*2A
$PGRMW,KK6BQJ,0,0012,Z CNT: 166*0B

KK6BQJ>APRS,WIDE1-1,WIDE2-1:!3518.11N/12039.80EWZ CNT: 167
$GPWPL,3518.11,N,12039.80,E,KK6BQJ*2A
$PGRMW,KK6BQJ,0,0012,Z CNT: 167*0A

KK6BQJ>APRS,WIDE1-1,WIDE2-1:!3518.11N/12039.80EWZ CNT: 168
$GPWPL,3518.11,N,12039.80,E,KK6BQJ*2A
$PGRMW,KK6BQJ,0,0012,Z CNT: 168*05

KK6BQJ>APRS,WIDE1-1,WIDE2-1:!3518.11N/12039.80EWZ CNT: 169
$GPWPL,3518.11,N,12039.80,E,KK6BQJ*2A
$PGRMW,KK6BQJ,0,0012,Z CNT: 169*04

KK6BQJ>APRS,WIDE1-1,WIDE2-1:!3518.11N/12039.80EWZ CNT: 170
$GPWPL,3518.11,N,12039.80,E,KK6BQJ*2A
$PGRMW,KK6BQJ,0,0012,Z CNT: 170*0C

KK6BQJ>APRS,WIDE1-1,WIDE2-1:!3518.11N/12039.80EWZ CNT: 171
$GPWPL,3518.11,N,12039.80,E,KK6BQJ*2A
$PGRMW,KK6BQJ,0,0012,Z CNT: 171*0D

KK6BQJ>APRS,WIDE1-1,WIDE2-1:!3518.11N/12039.80EWZ CNT: 172
$GPWPL,3518.11,N,12039.80,E,KK6BQJ*2A
$PGRMW,KK6BQJ,0,0012,Z CNT: 172*0E

KK6BQJ>APRS,WIDE1-1,WIDE2-1:!3518.11N/12039.80EWZ CNT: 173
$GPWPL,3518.11,N,12039.80,E,KK6BQJ*2A
$PGRMW,KK6BQJ,0,0012,Z CNT: 173*0F

KK6BQJ>APRS,WIDE1-1,WIDE2-1:!3518.11N/12039.80EWZ CNT: 174
$GPWPL,3518.11,N,12039.80,E,KK6BQJ*2A
$PGRMW,KK6BQJ,0,0012,Z CNT: 174*08

KK6BQJ>APRS,WIDE1-1,WIDE2-1:!3518.11N/12039.80EWZ CNT: 175
$GPWPL,3518.11,N,12039.80,E,KK6BQJ*2A
$PGRMW,KK6BQJ,0,0012,Z CNT: 175*09

KK6BQJ>APRS,WIDE1-1,WIDE2-1:!3518.11N/12039.80EWZ CNT: 176
$GPWPL,3518.11,N,12039.80,E,KK6BQJ*2A
$PGRMW,KK6BQJ,0,0012,Z CNT: 176*0A

KK6BQJ>APRS,WIDE1-1,WIDE2-1:!3518.11N/12039.80EWZ CNT: 177
$GPWPL,3518.11,N,12039.80,E,KK6BQJ*2A
$PGRMW,KK6BQJ,0,0012,Z CNT: 177*0B

KK6BQJ>APRS,WIDE1-1,WIDE2-1:!3518.11N/12039.80EWZ CNT: 178
$GPWPL,3518.11,N,12039.80,E,KK6BQJ*2A
$PGRMW,KK6BQJ,0,0012,Z CNT: 178*04

KK6BQJ>APRS,WIDE1-1,WIDE2-1:!3518.11N/12039.80EWZ CNT: 179
$GPWPL,3518.11,N,12039.80,E,KK6BQJ*2A
$PGRMW,KK6BQJ,0,0012,Z CNT: 179*05

KK6BQJ>APRS,WIDE1-1,WIDE2-1:!3518.11N/12039.80EWZ CNT: 180
$GPWPL,3518.11,N,12039.80,E,KK6BQJ*2A
$PGRMW,KK6BQJ,0,0012,Z CNT: 180*03

KK6BQJ>APRS,WIDE1-1,WIDE2-1:!3518.11N/12039.80EWZ CNT: 181
$GPWPL,3518.11,N,12039.80,E,KK6BQJ*2A
$PGRMW,KK6BQJ,0,0012,Z CNT: 181*02

KK6BQJ>APRS,WIDE1-1,WIDE2-1:!3518.11N/12039.80EWZ CNT: 182
$GPWPL,3518.11,N,12039.80,E,KK6BQJ*2A
$PGRMW,KK6BQJ,0,0012,Z CNT: 182*01

KK6BQJ>APRS,WIDE1-1,WIDE2-1:!3518.11N/12039.80EWZ CNT: 183
$GPWPL,3518.11,N,12039.80,E,KK6BQJ*2A
$PGRMW,KK6BQJ,0,0012,Z CNT: 183*00

KK6BQJ>APRS,WIDE1-1,WIDE2-1:!3518.11N/12039.80EWZ CNT: 184
$GPWPL,3518.11,N,12039.80,E,KK6BQJ*2A
$PGRMW,KK6BQJ,0,0012,Z CNT: 184*07

KK6BQJ>APRS,WIDE1-1,WIDE2-1:!3518.11N/12039.80EWZ CNT: 185
$GPWPL,3518.11,N,12039.80,E,KK6BQJ*2A
$PGRMW,KK6BQJ,0,0012,Z CNT: 185*06

KK6BQJ>APRS,WIDE1-1,WIDE2-1:!3518.11N/12039.80EWZ CNT: 186
$GPWPL,3518.11,N,12039.80,E,KK6BQJ*2A
$PGRMW,KK6BQJ,0,0012,Z CNT: 186*05

KK6BQJ>APRS,WIDE1-1,WIDE2-1:!3518.11N/12039.80EWZ CNT: 187
$GPWPL,3518.11,N,12039.80,E,KK6BQJ*2A
$PGRMW,KK6BQJ,0,0012,Z CNT: 187*04

KK6BQJ>APRS,WIDE1-1,WIDE2-1:!3518.11N/12039.80EWZ CNT: 188
$GPWPL,3518.11,N,12039.80,E,KK6BQJ*2A
$PGRMW,KK6BQJ,0,0012,Z CNT: 188*0B

KK6BQJ>APRS,WIDE1-1,WIDE2-1:!3518.11N/12039.80EWZ CNT: 189
$GPWPL,3518.11,N,12039.80,E,KK6BQJ*2A
$PGRMW,KK6BQJ,0,0012,Z CNT: 189*0A

KK6BQJ>APRS,WIDE1-1,WIDE2-1:!3518.11N/12039.80EWZ CNT: 190
$GPWPL,3518.11,N,12039.80,E,KK6BQJ*2A
$PGRMW,KK6BQJ,0,0012,Z CNT: 190*02

KK6BQJ>APRS,WIDE1-1,WIDE2-1:!3518.11N/12039.80EWZ CNT: 191
$GPWPL,3518.11,N,12039.80,E,KK6BQJ*2A
$PGRMW,KK6BQJ,0,0012,Z CNT: 191*03

KK6BQJ>APRS,WIDE1-1,WIDE2-1:!3518.11N/12039.80EWZ CNT: 192
$GPWPL,3518.11,N,12039.80,E,KK6BQJ*2A
$PGRMW,KK6BQJ,0,0012,Z CNT: 192*00

KK6BQJ>APRS,WIDE1-1,WIDE2-1:!3518.11N/12039.80EWZ CNT: 193
$GPWPL,3518.11,N,12039.80,E,KK6BQJ*2A
$PGRMW,KK6BQJ,0,0012,Z CNT: 193*01

KK6BQJ>APRS,WIDE1-1,WIDE2-1:!3518.11N/12039.80EWZ CNT: 194
$GPWPL,3518.11,N,12039.80,E,KK6BQJ*2A
$PGRMW,KK6BQJ,0,0012,Z CNT: 194*06

KK6BQJ>APRS,WIDE1-1,WIDE2-1:!3518.11N/12039.80EWZ CNT: 195
$GPWPL,3518.11,N,12039.80,E,KK6BQJ*2A
$PGRMW,KK6BQJ,0,0012,Z CNT: 195*07

KK6BQJ>APRS,WIDE1-1,WIDE2-1:!3518.11N/12039.80EWZ CNT: 196
$GPWPL,3518.11,N,12039.80,E,KK6BQJ*2A
$PGRMW,KK6BQJ,0,0012,Z CNT: 196*04

KK6BQJ>APRS,WIDE1-1,WIDE2-1:!3518.11N/12039.80EWZ CNT: 197
$GPWPL,3518.11,N,12039.80,E,KK6BQJ*2A
$PGRMW,KK6BQJ,0,0012,Z CNT: 197*05

KK6BQJ>APRS,WIDE1-1,WIDE2-1:!3518.11N/12039.80EWZ CNT: 198
$GPWPL,3518.11,N,12039.80,E,KK6BQJ*2A
$PGRMW,KK6BQJ,0,0012,Z CNT: 198*0A

KK6BQJ>APRS,WIDE1-1,WIDE2-1:!3518.11N/12039.80EWZ CNT: 199
$GPWPL,3518.11,N,12039.80,E,KK6BQJ*2A
$PGRMW,KK6BQJ,0,0012,Z CNT: 199*0B

cmd:
cmd:break trea   rack 1
Invalid Command
cmd:
cmd:
WA6YLB-4>APRS,N6EX-5*:$ULTW00000000----0000----000086A00001----0000000000000000


KD6FVP-2>APS224,N6EX-1,WIDE1:>152343z[224]*We know most of your faults!!!

KD6FVP-2>APS224,N6EX-1*,WIDE1:>152343z[224]*We know most of your faults!!!

N6XQY-12>GPSLJ,RELAY,WIDE2-2:$GPRMC,013641.06,A,3348.1607,N,11807.4631,W,34.0,090.5,231105,13.,E*73
$GPWPL,3348.16,N,11807.46,W,N6XQY-12*59
$PGRMW,N6XQY-12,0,00AA,*69

WA6YLB>APRX46,WA6YLB-7*,W6SCE-10*:>081839z wa6ylb@theworks.com

KC6HUR-1>S4QVYV,W6SCE-10*:'.4&l-/k/]"7q}
$GPWPL,3416.96,N,11824.10,W,KC6HUR-1*34
$PGRMW,KC6HUR-1,363,00B0, *56

N6XQY-12>GPSLJ,N6EX-4*:$GPRMC,013641.06,A,3348.1607,N,11807.4631,W,34.0,090.5,231105,13.,E*73
$GPWPL,3348.16,N,11807.46,W,N6XQY-12*59
$PGRMW,N6XQY-12,0,00AA,*69

KC6BLF-14>S4PWYS,N6EX-5*:'-U l{(u/]"5\}Lost in the West!
$GPWPL,3407.93,N,11757.04,W,KC6BLF-14*0C
$PGRMW,KC6BLF-14,160,00B0,Lost in the West! *0A

K6KMA-1>GPSLK,N6EX-1*:$GPRMC,013647,A,3350.076,N,11806.996,W,028.3,180.5,231105,013.5,E*69

$GPWPL,3350.07,N,11806.99,W,K6KMA-1*73
$PGRMW,K6KMA-1,0,00B0,*3B

AE6GR-7>S4PXYW,N6EX-1*:'._|l tv/]"6[}
$GPWPL,3408.97,N,11807.96,W,AE6GR-7*65
$PGRMW,AE6GR-7,250,00AA, *75

AE6MP>SS5PPQ-2,WIDE2-2:`.](n->>/"4W}
$GPWPL,3350.01,N,11805.12,W,AE6MP*7C
$PGRMW,AE6MP,64,00AA,*72

AE6MP>SS5PPQ-2,N6EX-4*:`.](n->>/"4W}
$GPWPL,3350.01,N,11805.12,W,AE6MP*7C
$PGRMW,AE6MP,64,00AA,*72

AE6MP>SS5PPQ-2,N6EX-1*:`.](n->>/"4W}
$GPWPL,3350.01,N,11805.12,W,AE6MP*7C
$PGRMW,AE6MP,64,00AA,*72

AE6MP>SS5PPQ-1,N6EX-5*:`.](n->>/"4W}
$GPWPL,3350.01,N,11805.12,W,AE6MP*7C
$PGRMW,AE6MP,64,00AA,*72

WA6YLB-12>S6QWSY,WA6YLB-7*,N6EX-5*:'/`0n>vR/]"56}
$GPWPL,3617.39,N,11908.20,W,WA6YLB-12*0A
$PGRMW,WA6YLB-12,122,2017, *13

K6LAR-1>APRS,N6EX-1*:$GPGGA,040332,3405.438,N,11801.836,W,1,06,1.1,114.2,M,-31.5,M,,*75

$GPWPL,3405.43,N,11801.83,W,K6LAR-1*60
$PGRMW,K6LAR-1,114,0012,*56

KD6UZM-15>S3UWTS,WB6JAR-10*,WIDE2-1:`-)l v\":r}
$GPWPL,3357.43,N,11713.01,W,KD6UZM-15*0A
$PGRMW,KD6UZM-15,637,00AA,*3F

KD6UZM-15>S3UWTS,WB6JAR-10*,N6EX-1*:`-)l v\":r}
$GPWPL,3357.43,N,11713.01,W,KD6UZM-15*0A
$PGRMW,KD6UZM-15,637,00AA,*3F

N6QFD-9>GPSLJ,N6EX-5*:$GPRMC,013714,A,3408.6360,N,11812.0716,W,0.0,88.1,231105,13.5,E,D*09

$GPWPL,3408.63,N,11812.07,W,N6QFD-9*60
$PGRMW,N6QFD-9,0,00AA,*50

N6EX-3>APJI23,N6EX-4,SOCAL1-1:}W6AHM>APRS,TCPIP,N6EX-3*:@230135z3350.28N/11818.85W_269/010g010t065r000P000p000h64b10155v6
$GPWPL,3350.28,N,11818.85,W,W6AHM*7F
$PGRMW,W6AHM,0,2068,269/010g010t065r000P000p000h64b10155v6*6E

N6EX-3>APJI23,N6EX-4*,SOCAL1-1:}W6AHM>APRS,TCPIP,N6EX-3*:@230135z3350.28N/11818.85W_269/010g010t065r000P000p000h64b10155v6
$GPWPL,3350.28,N,11818.85,W,W6AHM*7F
$PGRMW,W6AHM,0,2068,269/010g010t065r000P000p000h64b10155v6*6E

N6EX-3>APJI23,N6EX-1*,SOCAL1:}W6AHM>APRS,TCPIP,N6EX-3*:@230135z3350.28N/11818.85W_269/010g010t065r000P000p000h64b10155v6
$GPWPL,3350.28,N,11818.85,W,W6AHM*7F
$PGRMW,W6AHM,0,2068,269/010g010t065r000P000p000h64b10155v6*6E

N6EX-3>APJI23,W6SCE-10*,SOCAL1:}W6AHM>APRS,TCPIP,N6EX-3*:@230135z3350.28N/11818.85W_269/010g010t065r000P000p000h64b10155v6
$GPWPL,3350.28,N,11818.85,W,W6AHM*7F
$PGRMW,W6AHM,0,2068,269/010g010t065r000P000p000h64b10155v6*6E

KF6DQ-5>S4QUYZ,W6SCE-10*:'.Kel ~v/]"6A}TM-D700
$GPWPL,3415.90,N,11847.73,W,KF6DQ-5*6A
$PGRMW,KF6DQ-5,224,00AA,TM-D700 *3A

KF6DQ-5>S4QUYZ,W6SCE-10*:'.Kel ~v/]"6A}TM-D700
$GPWPL,3415.90,N,11847.73,W,KF6DQ-5*6A
$PGRMW,KF6DQ-5,224,00AA,TM-D700 *3A

KD6EDM>APW275,RELAY,WIDE2-2:=3340.25N/11754.88WKPHG2100/WinAPRS 2.7.5 -CAORACOSTA ME-275-<530>
$GPWPL,3340.25,N,11754.88,W,KD6EDM*29
$PGRMW,KD6EDM,0,2018,PHG2100/WinAPRS 2.7.5 -CAORACOSTA ME-275-<530> *27

KF6YVS-6>APT202,WB6JAR-10*,WIDE3-2:!0000.000/00000.000>000/000

KD6EDM>APW275,N6EX-4*:=3340.25N/11754.88WKPHG2100/WinAPRS 2.7.5 -CAORACOSTA ME-275-<530>
$GPWPL,3340.25,N,11754.88,W,KD6EDM*29
$PGRMW,KD6EDM,0,2018,PHG2100/WinAPRS 2.7.5 -CAORACOSTA ME-275-<530> *27

W6SCE-10>BEACON:>WIDE2-2 is best path in SoCal

NZ6L-9>SS4WVR,WIDE2-2:`.01l#%k/"4E}Monitoring 146.235(+)127.3
$GPWPL,3347.62,N,11820.21,W,NZ6L-9*2D
$PGRMW,NZ6L-9,46,00B0,Monitoring 146.235(+)127.3*73

NZ6L-9>SS4WVR,N6EX-4*:`.01l#%k/"4E}Monitoring 146.235(+)127.3
$GPWPL,3347.62,N,11820.21,W,NZ6L-9*2D
$PGRMW,NZ6L-9,46,00B0,Monitoring 146.235(+)127.3*73

WA8LMF>APU25N,WIDE1-1:>202337zhttp://wa8lmf.com

WA8LMF>APU25N,N6EX-1*:>202337zhttp://wa8lmf.com

WA6TK>ID,N6EX-4*:WA6TK/R RELAY/D KC7FD-1/B

WA6TK>ID,N6EX-2*,WB6JAR-10*,WIDE2*:WA6TK/R RELAY/D KC7FD-1/B

KA1WCC-9>ST0XPR,N6EX-1*:`-T0m4>/
$GPWPL,3408.02,N,11756.20,W,KA1WCC-9*2A
$PGRMW,KA1WCC-9,0,00AA,*17

WA6TK>ID,W6SCE-10*:WA6TK/R RELAY/D KC7FD-1/B

K7GIL-1>BEACON,WB6JAR-10*,WIDE3-2,N7ZEV-1:!3436.62NN11717.30W#PHG5760/A=004530/W-R-T-CA Victorville, CA
$GPWPL,3436.62,N,11717.30,W,K7GIL-1*7F
$PGRMW,K7GIL-1,1380,4007,PHG5760/W-R-T-CA Victorville  CA *33

K7GIL-1>BEACON,N6EX-4*,N7ZEV-1:!3436.62NN11717.30W#PHG5760/A=004530/W-R-T-CA Victorville, CA
$GPWPL,3436.62,N,11717.30,W,K7GIL-1*7F
$PGRMW,K7GIL-1,1380,4007,PHG5760/W-R-T-CA Victorville  CA *33

KF6MDF-2>GPS,WIDE2-2:$GPRMC,013801,V,3354.0188,N,11805.8904,W,000.0,000.0,301105,013.7,E*73

$GPWPL,3354.01,N,11805.89,W,KF6MDF-2*3E
$PGRMW,KF6MDF-2,0,0012,*07

KF6MDF-2>GPS,N6EX-1*:$GPRMC,013801,V,3354.0188,N,11805.8904,W,000.0,000.0,301105,013.7,E*73

$GPWPL,3354.01,N,11805.89,W,KF6MDF-2*3E
$PGRMW,KF6MDF-2,0,0012,*07

KB6CYS>BEACON,WIDE3-3:WEATHER STATION ON-LINE

KB6CYS>BEACON,N6EX-4*:WEATHER STATION ON-LINE

KB6CYS>BEACON,N6EX-1*:WEATHER STATION ON-LINE

KB6CYS>BEACON,W6SCE-10*:WEATHER STATION ON-LINE

KD6LAY>APW277,W6PVG-3*,W6SCE-10*:=3438.88N/11815.40WyPHG5660/WinAPRS 2.7.7 -277-<630>
$GPWPL,3438.88,N,11815.40,W,KD6LAY*30
$PGRMW,KD6LAY,0,000A,PHG5660/WinAPRS 2.7.7 -277-<630> *51

KF6WJS-14>S4PWYR,WIDE2-2:`.a"l!^k/"6b}
$GPWPL,3407.92,N,11809.06,W,KF6WJS-14*08
$PGRMW,KF6WJS-14,257,00B0,*40

KF6WJS-14>S4PWYR,N6EX-4*:`.a"l!^k/"6b}
$GPWPL,3407.92,N,11809.06,W,KF6WJS-14*08
$PGRMW,KF6WJS-14,257,00B0,*40

KF6WJS-14>S4PWYR,N6EX-1*:`.a"l!^k/"6b}
$GPWPL,3407.92,N,11809.06,W,KF6WJS-14*08
$PGRMW,KF6WJS-14,257,00B0,*40

KF6KOI>GPSMV,N6EX-4*:$GPRMC,013818,A,3347.6421,N,11805.4956,W,000.0,111.4,231105,013.4,E*61

$GPWPL,3347.64,N,11805.49,W,KF6KOI*2E
$PGRMW,KF6KOI,0,00AA,*19

K6EKB-5>APRS,K6TUO-3*,W6PVG-3*,WB6JAR-10*,WIDE3*:!3842.78N/12059.21W_PHG2133/A=000600/ k6ekb@arrl.net - Ed's remote WX station
$GPWPL,3842.78,N,12059.21,W,K6EKB-5*7E
$PGRMW,K6EKB-5,182,2068,PHG2133/ k6ekb@arrl.net - Ed's remote WX station *16

KF6DQ-5>S4QUYZ,W6SCE-10*:'.Kel ~v/]"6?}TM-D700
$GPWPL,3415.90,N,11847.73,W,KF6DQ-5*6A
$PGRMW,KF6DQ-5,222,00AA,TM-D700 *3C

KF6YVS-6>APT202,WB6JAR-10*,WIDE3-2:!0000.000/00000.000>000/000

AE6MP>SS5PTP-2,N6EX-4*:`.]>oA>>/"4G}
$GPWPL,3350.40,N,11805.34,W,AE6MP*7D
$PGRMW,AE6MP,48,00AA,*7C

N6EX-1>APN382,WIDE2-1:!3411.21N111802.13W#PHG5664/W1 for LA area/A=003000/sceara@ham-radio.com
$GPWPL,3411.21,N,11802.13,W,N6EX-1*2C
$PGRMW,N6EX-1,914,4007,PHG5664/W1 for LA area/sceara@ham-radio.com *70

AE6MP>SS5PTP-2,N6EX-1*:`.]>oA>>/"4G}
$GPWPL,3350.40,N,11805.34,W,AE6MP*7D
$PGRMW,AE6MP,48,00AA,*7C

KD7FNO-5>S5RTQP,W6PVG-3*,WB6JAR-10*,WIDE2*:'/3hl"Ku/]"4t}
$GPWPL,3524.10,N,11923.76,W,KD7FNO-5*36
$PGRMW,KD7FNO-5,93,00B0, *60

KD7FNO-5>S5RTQP,W6PVG-3*,N6EX-5*:'/3hl"Ku/]"4t}
$GPWPL,3524.10,N,11923.76,W,KD7FNO-5*36
$PGRMW,KD7FNO-5,93,00B0, *60

KD7FNO-5>S5RTQP,W6PVG-3*,W6SCE-10*:'/3hl"Ku/]"4t}
$GPWPL,3524.10,N,11923.76,W,KD7FNO-5*36
$PGRMW,KD7FNO-5,93,00B0, *60

KE6IYC-2>S4SPTT,K7GIL-1*,N6EX-4*:'-_jl"k/]"=n}Out and About.
$GPWPL,3430.44,N,11707.78,W,KE6IYC-2*26
$PGRMW,KE6IYC-2,906,00B0,Out and About. *00

KE6IYC-2>S4SPTT,K7GIL-1*,N6EX-2*,WB6JAR-10*,WIDE2*:'-_jl"k/]"=n}Out and About.
$GPWPL,3430.44,N,11707.78,W,KE6IYC-2*26
$PGRMW,KE6IYC-2,906,00B0,Out and About. *00

N6XQY-12>GPSLJ,RELAY*,WIDE2-2:$GPRMC,013840.62,A,3347.6058,N,11806.1945,W,46.0,131.9,231105,13.,E*71
$GPWPL,3347.60,N,11806.19,W,N6XQY-12*5C
$PGRMW,N6XQY-12,0,00AA,*69

N6XQY-12>GPSLJ,N6EX-4*:$GPRMC,013840.62,A,3347.6058,N,11806.1945,W,46.0,131.9,231105,13.,E*71
$GPWPL,3347.60,N,11806.19,W,N6XQY-12*5C
$PGRMW,N6XQY-12,0,00AA,*69

N6XQY-12>GPSLJ,RELAY*,N6EX-1*:$GPRMC,013840.62,A,3347.6058,N,11806.1945,W,46.0,131.9,231105,13.,E*71
$GPWPL,3347.60,N,11806.19,W,N6XQY-12*5C
$PGRMW,N6XQY-12,0,00AA,*69

N6BOX-10>APT310,WB6JAR-10*,WIDE2-1:/230138z3329.92N/11709.77Wk125/007/A=000984
$GPWPL,3329.92,N,11709.77,W,N6BOX-10*56
$PGRMW,N6BOX-10,299,00B0,125/007*30

N6BOX-10>APT310,WB6JAR-10*,W6SCE-10*:/230138z3329.92N/11709.77Wk125/007/A=000984
$GPWPL,3329.92,N,11709.77,W,N6BOX-10*56
$PGRMW,N6BOX-10,299,00B0,125/007*30

KE6RYZ>S3UUXT,RELAY,WIDE:`.[Jl!h>/]"4N}
$GPWPL,3355.84,N,11803.46,W,KE6RYZ*35
$PGRMW,KE6RYZ,55,00AA, *16

KE6RYZ>S3UUXT,RELAY*,WIDE:`.[Jl!h>/]"4N}
$GPWPL,3355.84,N,11803.46,W,KE6RYZ*35
$PGRMW,KE6RYZ,55,00AA, *16

KE6RYZ>S3UUXT,RELAY*,WIDE:`.[Jl!h>/]"4N}
$GPWPL,3355.84,N,11803.46,W,KE6RYZ*35
$PGRMW,KE6RYZ,55,00AA, *16

K6TZ-10>APJI20,W6SCE-10*:!3424.34NI11942.91W&Santa Barbara ARC Inc. javAPRSIgate on La Vigia Hill
$GPWPL,3424.34,N,11942.91,W,K6TZ-10*07
$PGRMW,K6TZ-10,0,0012,Santa Barbara ARC Inc. javAPRSIgate on La Vigia Hill*6F

KE6IYC-2>S4SPTT,K7GIL-1*,N6EX-4*:'-_jl"k/]"=n}
$GPWPL,3430.44,N,11707.78,W,KE6IYC-2*26
$PGRMW,KE6IYC-2,906,00B0, *46

KE6IYC-2>S4SPTT,K7GIL-1*,W6SCE-10*:'-_jl"k/]"=n}
$GPWPL,3430.44,N,11707.78,W,KE6IYC-2*26
$PGRMW,KE6IYC-2,906,00B0, *46

N6BOX-10>APT310,WB6JAR-10*,WIDE2-1:/230139z3329.91N/11709.71Wk072/019/A=000934
$GPWPL,3329.91,N,11709.71,W,N6BOX-10*53
$PGRMW,N6BOX-10,284,00B0,072/019*30

N6BOX-10>APT310,WB6JAR-10*,N6EX-1*:/230139z3329.91N/11709.71Wk072/019/A=000934
$GPWPL,3329.91,N,11709.71,W,N6BOX-10*53
$PGRMW,N6BOX-10,284,00B0,072/019*30

KF6YVS-6>APT202,WB6JAR-10*,WIDE3-2:!0000.000/00000.000>000/000/kf6yvs, Mike

AD6NH>APU25N,WIDE2-2:@230139z3352.18N/11749.77W_240/000g000t069r000p000P000b10161h38/PHG52605/Placentia WX {UIV32}
$GPWPL,3352.18,N,11749.77,W,AD6NH*68
$PGRMW,AD6NH,0,2068,240/000g000t069r000p000P000b10161h38/PHG52605/Placentia WX {UIV32} *77

AD6NH>APU25N,N6EX-1*:@230139z3352.18N/11749.77W_240/000g000t069r000p000P000b10161h38/PHG52605/Placentia WX {UIV32}
$GPWPL,3352.18,N,11749.77,W,AD6NH*68
$PGRMW,AD6NH,0,2068,240/000g000t069r000p000P000b10161h38/PHG52605/Placentia WX {UIV32} *77

KC6JTN-9>APT311,WA6YLB-4*,N6EX-5*:!3417.73N/11647.90W>353/023/A=006600
$GPWPL,3417.73,N,11647.90,W,KC6JTN-9*2A
$PGRMW,KC6JTN-9,2011,00AA,353/023*0C

W6MAF>APTW01,WB6JAR-10*,WIDE3-2:_11221839c046s000g000t054r000p000P000h32b10185tU2k

KC6JTN-9>APT311,WA6YLB-4*,W6SCE-10*:!3417.73N/11647.90W>353/023/A=006600
$GPWPL,3417.73,N,11647.90,W,KC6JTN-9*2A
$PGRMW,KC6JTN-9,2011,00AA,353/023*0C

WA6YLB-4>APRS,W6PVG-3*,N6EX-5*:$ULTW00000000----0000----000086A00001----0000000000000000


KD6VLP-2>SSUUUP,WB6JAR-10*,WIDE3-2:',Leo}(j/]":Z}
$GPWPL,3355.50,N,11648.73,W,KD6VLP-2*3E
$PGRMW,KD6VLP-2,613,00AA, *27

KE6IYC-2>S4SPTT,K7GIL-1*,N6EX-5*:'-_jl"k/]"=r}
$GPWPL,3430.44,N,11707.78,W,KE6IYC-2*26
$PGRMW,KE6IYC-2,910,00B0, *41

KE6IYC-2>S4SPTT,K7GIL-1*,W6SCE-10*:'-_jl"k/]"=r}
$GPWPL,3430.44,N,11707.78,W,KE6IYC-2*26
$PGRMW,KE6IYC-2,910,00B0, *41

AE6GR-7>STPYVU,WIDE2-2:'._wlzzv/]Stopped
$GPWPL,3409.65,N,11807.91,W,AE6GR-7*6E
$PGRMW,AE6GR-7,0,00AA,Stopped *3B

AE6GR-7>STPYVU,N6EX-4*:'._wlzzv/]Stopped
$GPWPL,3409.65,N,11807.91,W,AE6GR-7*6E
$PGRMW,AE6GR-7,0,00AA,Stopped *3B

AE6GR-7>STPYVU,N6EX-1*:'._wlzzv/]Stopped
$GPWPL,3409.65,N,11807.91,W,AE6GR-7*6E
$PGRMW,AE6GR-7,0,00AA,Stopped *3B

W6SCE-10>APN382,WIDE2-1:!3419.82N111836.06W#PHG6860/W1 on Oat Mtn./A=003747/k6ccc@amsat.org for info
$GPWPL,3419.82,N,11836.06,W,W6SCE-10*4F
$PGRMW,W6SCE-10,1142,4007,PHG6860/W1 on Oat Mtn./k6ccc@amsat.org for info *64

KF6MDF-2>GPS,WIDE2-2:$GPRMC,014001,V,3354.0188,N,11805.8904,W,000.0,000.0,301105,013.7,E*7C

$GPWPL,3354.01,N,11805.89,W,KF6MDF-2*3E
$PGRMW,KF6MDF-2,0,0012,*07

KF6MDF-2>GPS,N6EX-1*:$GPRMC,014001,V,3354.0188,N,11805.8904,W,000.0,000.0,301105,013.7,E*7C

$GPWPL,3354.01,N,11805.89,W,KF6MDF-2*3E
$PGRMW,KF6MDF-2,0,0012,*07

WA6TK>APS227,W6PVG-3*,N6EX-5*:@230139z3451.81N/11810.37W_151/000g001t060r000p000P000b10196h27
$GPWPL,3451.81,N,11810.37,W,WA6TK*61
$PGRMW,WA6TK,0,2068,151/000g001t060r000p000P000b10196h27 *10

KC6HUR-1>S4QWUP,W6SCE-10*:'.4_m7/k/]"7m}
$GPWPL,3417.50,N,11824.67,W,KC6HUR-1*3F
$PGRMW,KC6HUR-1,359,00B0, *5F

WA6TK>APS227,W6SCE-10*:@230139z3451.81N/11810.37W_151/000g001t060r000p000P000b10196h27
$GPWPL,3451.81,N,11810.37,W,WA6TK*61
$PGRMW,WA6TK,0,2068,151/000g001t060r000p000P000b10196h27 *10

WA6TK>APS227,W6PVG-3*,W6SCE-10*:@230139z3451.81N/11810.37W_151/000g001t060r000p000P000b10196h27
$GPWPL,3451.81,N,11810.37,W,WA6TK*61
$PGRMW,WA6TK,0,2068,151/000g001t060r000p000P000b10196h27 *10

KF6WJS-14>S4PWYR,WIDE2-2:`.a"l"Hk/"6f}KF6WJS@ARRL.NET
$GPWPL,3407.92,N,11809.06,W,KF6WJS-14*08
$PGRMW,KF6WJS-14,261,00B0,KF6WJS@ARRL.NET*0C

KF6WJS-14>S4PWYR,N6EX-1*:`.a"l"Hk/"6f}KF6WJS@ARRL.NET
$GPWPL,3407.92,N,11809.06,W,KF6WJS-14*08
$PGRMW,KF6WJS-14,261,00B0,KF6WJS@ARRL.NET*0C

N6EX-3>APJI23,N6EX-4,SOCAL1-1:!3406.35NI11742.72W&PHG5340/LA IGate/A=1350/sceara@ham-radio.com
$GPWPL,3406.35,N,11742.72,W,N6EX-3*21
$PGRMW,N6EX-3,-24371,0012,PHG5340/LA IGateceara@ham-radio.com*5B

N6EX-3>APJI23,N6EX-4*,SOCAL1-1:!3406.35NI11742.72W&PHG5340/LA IGate/A=1350/sceara@ham-radio.com
$GPWPL,3406.35,N,11742.72,W,N6EX-3*21
$PGRMW,N6EX-3,-24371,0012,PHG5340/LA IGateceara@ham-radio.com*5B

N6EX-3>APJI23,N6EX-1*,SOCAL1:!3406.35NI11742.72W&PHG5340/LA IGate/A=1350/sceara@ham-radio.com
$GPWPL,3406.35,N,11742.72,W,N6EX-3*21
$PGRMW,N6EX-3,-24371,0012,PHG5340/LA IGateceara@ham-radio.com*5B

K5MTN-1>SUPVYV,N6EX-2*,WB6JAR-10*,WIDE3*:`.'D",lk/>">Q}Monitoring 146.90
$GPWPL,3506.96,N,11811.40,W,K5MTN-1*6F
$PGRMW,K5MTN-1,968,00B0,Monitoring 146.90 *17

KF6YVS-6>APT202,WB6JAR-10*,WIDE3-2:!0000.000/00000.000>000/000

K6TJS-1>APU25N,WB6JAR-10*,WIDE2-1:@230140z3318.51N/11728.61Wv134/060I love LA! {UIV32N}
$GPWPL,3318.51,N,11728.61,W,K6TJS-1*72
$PGRMW,K6TJS-1,0,00AA,134/060I love LA! {UIV32N} *1A

K6TJS-1>APU25N,WB6JAR-10*,N6EX-1*:@230140z3318.51N/11728.61Wv134/060I love LA! {UIV32N}
$GPWPL,3318.51,N,11728.61,W,K6TJS-1*72
$PGRMW,K6TJS-1,0,00AA,134/060I love LA! {UIV32N} *1A

KC6JTN-9>APT311,WA6YLB-4*,W6SCE-10*:!3418.01N/11648.07W>285/022/A=006420
$GPWPL,3418.01,N,11648.07,W,KC6JTN-9*21
$PGRMW,KC6JTN-9,1956,00AA,285/022*0E

W2NKM-2>STQRTP,RELAY,WIDE:`.'/l"tR/]"8:}
$GPWPL,3412.40,N,11811.19,W,W2NKM-2*6B
$PGRMW,W2NKM-2,399,2017, *7A

W2NKM-2>STQRTP,RELAY*,WIDE:`.'/l"tR/]"8:}
$GPWPL,3412.40,N,11811.19,W,W2NKM-2*6B
$PGRMW,W2NKM-2,399,2017, *7A

KN6KS-2>APX161,N6EX-5*:=3440.77N/11807.24WxPHG7130Tom - Relay Digi - tdhart@ureach.com - Xastir Linux 1.6.1
$GPWPL,3440.77,N,11807.24,W,KN6KS-2*67
$PGRMW,KN6KS-2,0,202E,PHG7130Tom - Relay Digi - tdhart@ureach.com - Xastir Linux 1.6.1 *22

KN6KS-2>APX161,W6SCE-10*:=3440.77N/11807.24WxPHG7130Tom - Relay Digi - tdhart@ureach.com - Xastir Linux 1.6.1
$GPWPL,3440.77,N,11807.24,W,KN6KS-2*67
$PGRMW,KN6KS-2,0,202E,PHG7130Tom - Relay Digi - tdhart@ureach.com - Xastir Linux 1.6.1 *22

KE6IYC-2>S4SPTT,K7GIL-1*,N6EX-4*:'-_jl"k/]"=r}
$GPWPL,3430.44,N,11707.78,W,KE6IYC-2*26
$PGRMW,KE6IYC-2,910,00B0, *41

KE6IYC-2>S4SPTT,K7GIL-1*,W6SCE-10*:'-_jl"k/]"=r}
$GPWPL,3430.44,N,11707.78,W,KE6IYC-2*26
$PGRMW,KE6IYC-2,910,00B0, *41

KC6JTN-9>APT311,WA6YLB-4*,N6EX-4*:!3418.08N/11648.14W>347/022/A=006328
$GPWPL,3418.08,N,11648.14,W,KC6JTN-9*2A
$PGRMW,KC6JTN-9,1928,00AA,347/022*08

KC6JTN-9>APT311,WA6YLB-4*,N6EX-2*,WB6JAR-10*,WIDE2*:!3418.08N/11648.14W>347/022/A=006328
$GPWPL,3418.08,N,11648.14,W,KC6JTN-9*2A
$PGRMW,KC6JTN-9,1928,00AA,347/022*08

KC6JTN-9>APT311,WA6YLB-4*,W6SCE-10*:!3418.08N/11648.14W>347/022/A=006328
$GPWPL,3418.08,N,11648.14,W,KC6JTN-9*2A
$PGRMW,KC6JTN-9,1928,00AA,347/022*08

KE6RYZ>S3UUXT,RELAY,WIDE:`.[Jl!h>/]"4O}
$GPWPL,3355.84,N,11803.46,W,KE6RYZ*35
$PGRMW,KE6RYZ,56,00AA, *15

KE6RYZ>S3UUXT,WB6JAR-10*,WIDE:`.[Jl!h>/]"4O}
$GPWPL,3355.84,N,11803.46,W,KE6RYZ*35
$PGRMW,KE6RYZ,56,00AA, *15

WA6YLB-4>APRS,N6EX-5*:$ULTW00000000----0000----000086A00001----0000000000000000


KG6SKQ-1>APT311,N6EX-4*:/230141z3343.89N/11801.89Wk315/000/A=000013/TT3
$GPWPL,3343.89,N,11801.89,W,KG6SKQ-1*38
$PGRMW,KG6SKQ-1,3,00B0,315/000/TT3*45

K7ACS-2>APRS,WB6WLV-11*,WB6JAR-10*,WIDE2*:=3242.36N\11435.89W? PHG92603/Probe Enabled
$GPWPL,3242.36,N,11435.89,W,K7ACS-2*6A
$PGRMW,K7ACS-2,0,009D,PHG92603/Probe Enabled*41

KF6KOI>GPSMV,N6EX-4*:$GPRMC,014118,A,3347.6411,N,11805.4960,W,000.0,111.4,231105,013.4,E*69

$GPWPL,3347.64,N,11805.49,W,KF6KOI*2E
$PGRMW,KF6KOI,0,00AA,*19

KE6IYC-2>S4SPTT,K7GIL-1*,N6EX-4*:'-_jl"k/]"=m}Out and About.
$GPWPL,3430.44,N,11707.78,W,KE6IYC-2*26
$PGRMW,KE6IYC-2,905,00B0,Out and About. *03

N6EX-4>APNU18,WIDE2-1:!3336.35N111748.63W#PHG5660/W1 for Orange County
$GPWPL,3336.35,N,11748.63,W,N6EX-4*28
$PGRMW,N6EX-4,0,4007,PHG5660/W1 for Orange County*52

N6EX-4>APNU18,N6EX-1*:!3336.35N111748.63W#PHG5660/W1 for Orange County
$GPWPL,3336.35,N,11748.63,W,N6EX-4*28
$PGRMW,N6EX-4,0,4007,PHG5660/W1 for Orange County*52

KF6DQ-5>S4QUYZ,N6EX-4*:'.Kfl ~v/]"6E}TM-D700
$GPWPL,3415.90,N,11847.74,W,KF6DQ-5*6D
$PGRMW,KF6DQ-5,228,00AA,TM-D700 *36

KF6DQ-5>S4QUYZ,W6SCE-10*:'.Kfl ~v/]"6E}TM-D700
$GPWPL,3415.90,N,11847.74,W,KF6DQ-5*6D
$PGRMW,KF6DQ-5,228,00AA,TM-D700 *36

KF6DQ-5>S4QUYZ,W6SCE-10*:'.Kfl ~v/]"6E}TM-D700
$GPWPL,3415.90,N,11847.74,W,KF6DQ-5*6D
$PGRMW,KF6DQ-5,228,00AA,TM-D700 *36

KC6JTN-9>APT311,WA6YLB-4*,N6EX-4*:!3418.27N/11648.26W>024/024/A=006213
$GPWPL,3418.27,N,11648.26,W,KC6JTN-9*26
$PGRMW,KC6JTN-9,1893,00AA,024/024*09

KC6JTN-9>APT311,WA6YLB-4*,N6EX-2*,WB6JAR-10*,WIDE2*:!3418.27N/11648.26W>024/024/A=006213
$GPWPL,3418.27,N,11648.26,W,KC6JTN-9*26
$PGRMW,KC6JTN-9,1893,00AA,024/024*09

KC6JTN-9>APT311,WA6YLB-4*,W6SCE-10*:!3418.27N/11648.26W>024/024/A=006213
$GPWPL,3418.27,N,11648.26,W,KC6JTN-9*26
$PGRMW,KC6JTN-9,1893,00AA,024/024*09

KC6JTN-9>APT311,WA6YLB-4*,W6SCE-10*:!3418.27N/11648.26W>024/024/A=006213
$GPWPL,3418.27,N,11648.26,W,KC6JTN-9*26
$PGRMW,KC6JTN-9,1893,00AA,024/024*09

KE6ITF-7>S6QYXU,W6PVG-3*,WB6JAR-10*,WIDE3*:'/,dnIkk/]"5"}
$GPWPL,3619.85,N,11916.72,W,KE6ITF-7*2B
$PGRMW,KE6ITF-7,102,00B0, *47

K6TJS-1>APU25N,WB6JAR-10*,WIDE2-1:@230141z3317.91N/11727.88Wv044/025I love LA! {UIV32N}
$GPWPL,3317.91,N,11727.88,W,K6TJS-1*79
$PGRMW,K6TJS-1,0,00AA,044/025I love LA! {UIV32N} *1D

K6TJS-1>APU25N,WB6JAR-10*,N6EX-1*:@230141z3317.91N/11727.88Wv044/025I love LA! {UIV32N}
$GPWPL,3317.91,N,11727.88,W,K6TJS-1*79
$PGRMW,K6TJS-1,0,00AA,044/025I love LA! {UIV32N} *1D

AE6MP>SS5QWP-2,N6EX-4*:`.]nmiF>/"4<}
$GPWPL,3351.70,N,11805.82,W,AE6MP*72
$PGRMW,AE6MP,37,00AA,*74

AE6MP>SS5QWP-2,N6EX-1*:`.]nmiF>/"4<}
$GPWPL,3351.70,N,11805.82,W,AE6MP*72
$PGRMW,AE6MP,37,00AA,*74

AE6MP>SS5QWP-1,N6EX-5*:`.]nmiF>/"4<}
$GPWPL,3351.70,N,11805.82,W,AE6MP*72
$PGRMW,AE6MP,37,00AA,*74

KD7FNO-5>S5RTQP,W6PVG-3*,W6SCE-10*:'/3hl"Ku/]"4j}
$GPWPL,3524.10,N,11923.76,W,KD7FNO-5*36
$PGRMW,KD7FNO-5,83,00B0, *61

N7WLC>APJI22,W6SCE-10*:!3412.13NI11853.48W&Thousand Oaks - n7wlc@arrl.net
$GPWPL,3412.13,N,11853.48,W,N7WLC*7C
$PGRMW,N7WLC,0,0012,Thousand Oaks - n7wlc@arrl.net*75

KE6IYC-2>S4SPTT,K7GIL-1*,N6EX-2*,N6EX-4*:'-_jl"k/]"=s}
$GPWPL,3430.44,N,11707.78,W,KE6IYC-2*26
$PGRMW,KE6IYC-2,911,00B0, *40

AD6NH>APRS,N6EX-4*:;LA LOAD  *220941z3352.18N\11749.77W? 114 In 10 Minutes
$GPWPL,3352.18,N,11749.77,W,LA*50
$PGRMW,LA,0,009D,114 In 10 Minutes*70

KF6MDF-2>GPS,WIDE2-2:$GPRMC,014201,V,3354.0188,N,11805.8904,W,000.0,000.0,301105,013.7,E*7E

$GPWPL,3354.01,N,11805.89,W,KF6MDF-2*3E
$PGRMW,KF6MDF-2,0,0012,*07

KF6MDF-2>GPS,N6EX-4*:$GPRMC,014201,V,3354.0188,N,11805.8904,W,000.0,000.0,301105,013.7,E*7E

$GPWPL,3354.01,N,11805.89,W,KF6MDF-2*3E
$PGRMW,KF6MDF-2,0,0012,*07

KF6MDF-2>GPS,W6SCE-10*:$GPRMC,014201,V,3354.0188,N,11805.8904,W,000.0,000.0,301105,013.7,E*7E

$GPWPL,3354.01,N,11805.89,W,KF6MDF-2*3E
$PGRMW,KF6MDF-2,0,0012,*07

LGB>BEACON,WIDE2-1:!3349.10N/11808.67W^  [by K6KMA]
$GPWPL,3349.10,N,11808.67,W,LGB*1D
$PGRMW,LGB,0,4000,[by K6KMA] *05

LGB>BEACON,N6EX-4*:!3349.10N/11808.67W^  [by K6KMA]
$GPWPL,3349.10,N,11808.67,W,LGB*1D
$PGRMW,LGB,0,4000,[by K6KMA] *05

LGB>BEACON,N6EX-1*:!3349.10N/11808.67W^  [by K6KMA]
$GPWPL,3349.10,N,11808.67,W,LGB*1D
$PGRMW,LGB,0,4000,[by K6KMA] *05

KF6WJS-14>S4PWYR,WIDE2-2:`.a"l"Hk/"6f}
$GPWPL,3407.92,N,11809.06,W,KF6WJS-14*08
$PGRMW,KF6WJS-14,261,00B0,*45

KF6WJS-14>S4PWYR,N6EX-4*:`.a"l"Hk/"6f}
$GPWPL,3407.92,N,11809.06,W,KF6WJS-14*08
$PGRMW,KF6WJS-14,261,00B0,*45

KF6WJS-14>S4PWYR,N6EX-1*:`.a"l"Hk/"6f}
$GPWPL,3407.92,N,11809.06,W,KF6WJS-14*08
$PGRMW,KF6WJS-14,261,00B0,*45

KC6YRU>APU25N,W6PVG-3*,WB6JAR-10*,WIDE2*:}KG6OWS-7>APK101,TCPIP,KC6YRU*::K6XTY    : o3{P

KF6YVS-6>APT202,WB6JAR-10*,WIDE3-2:!0000.000/00000.000>000/000/kf6yvs, Mike

KF6DQ-5>S4QUYZ,W6SCE-10*:'.Kfl ~v/]"6Q}TM-D700
$GPWPL,3415.90,N,11847.74,W,KF6DQ-5*6D
$PGRMW,KF6DQ-5,240,00AA,TM-D700 *38

KF6DQ-5>S4QUYZ,W6SCE-10*:'.Kfl ~v/]"6Q}TM-D700
$GPWPL,3415.90,N,11847.74,W,KF6DQ-5*6D
$PGRMW,KF6DQ-5,240,00AA,TM-D700 *38

KG6ULN-14>S3PRWP,WB6WLV-11*,WB6JAR-10*,WIDE2*:',Pdl"Gk/]Tania's Crusin
$GPWPL,3302.70,N,11652.72,W,KG6ULN-14*1D
$PGRMW,KG6ULN-14,0,00B0,Tania's Crusin *6F

KC6JTN-9>APT311,WA6YLB-4*,N6EX-5*:!3418.98N/11648.75W>299/047/A=006010
$GPWPL,3418.98,N,11648.75,W,KC6JTN-9*24
$PGRMW,KC6JTN-9,1831,00AA,299/047*00

KC6JTN-9>APT311,WA6YLB-4*,W6SCE-10*:!3418.98N/11648.75W>299/047/A=006010
$GPWPL,3418.98,N,11648.75,W,KC6JTN-9*24
$PGRMW,KC6JTN-9,1831,00AA,299/047*00

KD6VLP-2>SSUUVQ,WB6JAR-10*,WIDE3-2:',O+ ,Kj/]";8}
$GPWPL,3355.61,N,11651.15,W,KD6VLP-2*34
$PGRMW,KD6VLP-2,670,00AA, *22

AC6VV-9>S4PXYQ,WIDE1-1:`.aF!*U>/]"6l}
$GPWPL,3408.91,N,11809.42,W,AC6VV-9*79
$PGRMW,AC6VV-9,267,00AA, *6C

AC6VV-9>S4PXYQ,N6EX-4*:`.aF!*U>/]"6l}
$GPWPL,3408.91,N,11809.42,W,AC6VV-9*79
$PGRMW,AC6VV-9,267,00AA, *6C

AC6VV-9>S4PXYQ,N6EX-1*:`.aF!*U>/]"6l}
$GPWPL,3408.91,N,11809.42,W,AC6VV-9*79
$PGRMW,AC6VV-9,267,00AA, *6C

N7WLC>APJI22,W6SCE-10*:<IGATE,MSG_CNT=0,LOC_CNT=3

N7WLC>APJI22,W6SCE-10*:>Mike in Thousand Oaks

KE6IYC-2>S4SPTT,K7GIL-1*,N6EX-4*:'-_jl"k/]"=o}
$GPWPL,3430.44,N,11707.78,W,KE6IYC-2*26
$PGRMW,KE6IYC-2,907,00B0, *47

KE6IYC-2>S4SPTT,K7GIL-1*,W6PVG-3*,N6EX-5*:'-_jl"k/]"=o}
$GPWPL,3430.44,N,11707.78,W,KE6IYC-2*26
$PGRMW,KE6IYC-2,907,00B0, *47

KE6IYC-2>S4SPTT,K7GIL-1*,W6SCE-10*:'-_jl"k/]"=o}
$GPWPL,3430.44,N,11707.78,W,KE6IYC-2*26
$PGRMW,KE6IYC-2,907,00B0, *47

KE6IYC-2>S4SPTT,K7GIL-1*,W6PVG-3*,W6SCE-10*:'-_jl"k/]"=o}
$GPWPL,3430.44,N,11707.78,W,KE6IYC-2*26
$PGRMW,KE6IYC-2,907,00B0, *47

KC6HUR-1>S4QXVT,W6SCE-10*:'.5x!#)k/]"8,}
$GPWPL,3418.64,N,11825.92,W,KC6HUR-1*3C
$PGRMW,KC6HUR-1,385,00B0, *5E

KE6RYZ>S3UUXT,RELAY,WIDE:`.[Jl!h>/]"4S}
$GPWPL,3355.84,N,11803.46,W,KE6RYZ*35
$PGRMW,KE6RYZ,60,00AA, *10

KE6RYZ>S3UUXT,WB6JAR-10*,WIDE:`.[Jl!h>/]"4S}
$GPWPL,3355.84,N,11803.46,W,KE6RYZ*35
$PGRMW,KE6RYZ,60,00AA, *10

KE6RYZ>S3UUXT,RELAY*,WIDE:`.[Jl!h>/]"4S}
$GPWPL,3355.84,N,11803.46,W,KE6RYZ*35
$PGRMW,KE6RYZ,60,00AA, *10

KD6UZM-15>S3UWTS,WB6JAR-10*,WIDE2-1:`-)l v\":l}
$GPWPL,3357.43,N,11713.01,W,KD6UZM-15*0A
$PGRMW,KD6UZM-15,631,00AA,*39

KD6UZM-15>S3UWTS,WB6JAR-10*,N6EX-1*:`-)l v\":l}
$GPWPL,3357.43,N,11713.01,W,KD6UZM-15*0A
$PGRMW,KD6UZM-15,631,00AA,*39

KK6T-9>APT311,N6EX-4*:>TinyTrak3 v1.1

N6QFD-9>GPSLJ,WIDE2-2:$GPRMC,014314,A,3408.5368,N,11810.3940,W,38.9,66.1,231105,13.5,E,D*3F

$GPWPL,3408.53,N,11810.39,W,N6QFD-9*6C
$PGRMW,N6QFD-9,0,00AA,*50

N6QFD-9>GPSLJ,N6EX-1*:$GPRMC,014314,A,3408.5368,N,11810.3940,W,38.9,66.1,231105,13.5,E,D*3F

$GPWPL,3408.53,N,11810.39,W,N6QFD-9*6C
$PGRMW,N6QFD-9,0,00AA,*50

K6NR>S3TRXX,N6EX-4*:`-JClf0>/&/q}
$GPWPL,3342.88,N,11746.39,W,K6NR*31
$PGRMW,K6NR,32759,00AA,*04

KF6YVS-6>APT202,WB6JAR-10*,WIDE3-2:!0000.000/00000.000>000/000

W6OFR>SSTXPW,N6EX-4*:`./am!{v>
$GPWPL,3348.07,N,11819.69,W,W6OFR*67
$PGRMW,W6OFR,0,00AA,*55

KE6IYC-2>S4SPTS,K7GIL-1*,N6EX-4*:'-_jl"k/]"=q}
$GPWPL,3430.43,N,11707.78,W,KE6IYC-2*21
$PGRMW,KE6IYC-2,909,00B0, *49

KE6IYC-2>S4SPTS,K7GIL-1*,W6SCE-10*:'-_jl"k/]"=q}
$GPWPL,3430.43,N,11707.78,W,KE6IYC-2*21
$PGRMW,KE6IYC-2,909,00B0, *49

KG6OWS-7>APK101,KG6OWS-3*,WIDE1*,W6PVG-3*,W6SCE-10*::K6XTY    : o3{P

WA6YLB-4>APRS,W6PVG-3*,W6SCE-10*:$ULTW00000000----0000----000086A00001----0000000000000000


KC6JTN-9>APT311,K7GIL-1*,N6EX-4*:!3419.56N/11649.35W>304/036/A=005829
$GPWPL,3419.56,N,11649.35,W,KC6JTN-9*22
$PGRMW,KC6JTN-9,1776,00AA,304/036*0F

KC6JTN-9>APT311,K7GIL-1*,W6PVG-3*,N6EX-5*:!3419.56N/11649.35W>304/036/A=005829
$GPWPL,3419.56,N,11649.35,W,KC6JTN-9*22
$PGRMW,KC6JTN-9,1776,00AA,304/036*0F

KC6JTN-9>APT311,K7GIL-1*,W6SCE-10*:!3419.56N/11649.35W>304/036/A=005829
$GPWPL,3419.56,N,11649.35,W,KC6JTN-9*22
$PGRMW,KC6JTN-9,1776,00AA,304/036*0F

KC6JTN-9>APT311,K7GIL-1*,W6PVG-3*,W6SCE-10*:!3419.56N/11649.35W>304/036/A=005829
$GPWPL,3419.56,N,11649.35,W,KC6JTN-9*22
$PGRMW,KC6JTN-9,1776,00AA,304/036*0F

N6EX-5>APNU19:!3348.40N111822.11W#PHG7567/W1 for South Bay/WLA
$GPWPL,3348.40,N,11822.11,W,N6EX-5*24
$PGRMW,N6EX-5,0,4007,PHG7567/W1 for South Bay/WLA*25

N6EX-4>APNU18:!3336.35N111748.63W#PHG5660/W1 for Orange County
$GPWPL,3336.35,N,11748.63,W,N6EX-4*28
$PGRMW,N6EX-4,0,4007,PHG5660/W1 for Orange County*52

KF6MDF-2>GPS,WIDE2-2:$GPRMC,014401,V,3354.0188,N,11805.8904,W,000.0,000.0,301105,013.7,E*78

$GPWPL,3354.01,N,11805.89,W,KF6MDF-2*3E
$PGRMW,KF6MDF-2,0,0012,*07

WA8LMF-14>APU25N,WIDE2-2:;146.70   *020658z3412.83N/11741.68WmPL 146.2 APRN & Mic-E Rpt on Sunset
$GPWPL,3412.83,N,11741.68,W,146.70*40
$PGRMW,146.70,0,0012,PL 146.2 APRN & Mic-E Rpt on Sunset *3C

KF6MDF-2>GPS,N6EX-1*:$GPRMC,014401,V,3354.0188,N,11805.8904,W,000.0,000.0,301105,013.7,E*78

$GPWPL,3354.01,N,11805.89,W,KF6MDF-2*3E
$PGRMW,KF6MDF-2,0,0012,*07

WA8LMF-14>APU25N,N6EX-1*:;146.70   *020658z3412.83N/11741.68WmPL 146.2 APRN & Mic-E Rpt on Sunset
$GPWPL,3412.83,N,11741.68,W,146.70*40
$PGRMW,146.70,0,0012,PL 146.2 APRN & Mic-E Rpt on Sunset *3C

KC6JTN-9>APT311,K7GIL-1*,N6EX-4*:!3419.64N/11649.57W>310/027/A=005731
$GPWPL,3419.64,N,11649.57,W,KC6JTN-9*27
$PGRMW,KC6JTN-9,1746,00AA,310/027*09

KC6JTN-9>APT311,K7GIL-1*,N6EX-2*,WB6JAR-10*,WIDE2*:!3419.64N/11649.57W>310/027/A=005731
$GPWPL,3419.64,N,11649.57,W,KC6JTN-9*27
$PGRMW,KC6JTN-9,1746,00AA,310/027*09

KC6JTN-9>APT311,K7GIL-1*,W6SCE-10*:!3419.64N/11649.57W>310/027/A=005731
$GPWPL,3419.64,N,11649.57,W,KC6JTN-9*27
$PGRMW,KC6JTN-9,1746,00AA,310/027*09

KF6WJS-14>S4PWYR,WIDE2-2:`.a"l"Hk/"6g}
$GPWPL,3407.92,N,11809.06,W,KF6WJS-14*08
$PGRMW,KF6WJS-14,262,00B0,*46

KF6WJS-14>S4PWYR,N6EX-4*:`.a"l"Hk/"6g}
$GPWPL,3407.92,N,11809.06,W,KF6WJS-14*08
$PGRMW,KF6WJS-14,262,00B0,*46

KF6WJS-14>S4PWYR,N6EX-1*:`.a"l"Hk/"6g}
$GPWPL,3407.92,N,11809.06,W,KF6WJS-14*08
$PGRMW,KF6WJS-14,262,00B0,*46

KF6KOI>GPSMV,N6EX-4*:$GPGGA,014418,3347.6417,N,11805.4954,W,2,08,1.2,13.3,M,-32.1,M,,*4A

$GPWPL,3347.64,N,11805.49,W,KF6KOI*2E
$PGRMW,KF6KOI,13,00AA,*2B

KF6YVS-6>APT202,WB6JAR-10*,WIDE3-2:!0000.000/00000.000>000/000

KF6MDF-2>ID,WB6JAR-10*,WIDE:KF6MDF-2/R RELAY/D KF6MDF-1/B

W6MAF>APTW01,N6EX-2*,WB6JAR-10*,WIDE3-1:_11221844c046s000g000t054r000p000P000h32b10186tU2k

KF6DQ-5>S4QUYZ,W6SCE-10*:'.Kel ~v/]"6:}TM-D700
$GPWPL,3415.90,N,11847.73,W,KF6DQ-5*6A
$PGRMW,KF6DQ-5,217,00AA,TM-D700 *3A

KE6IYC-2>S4SPTT,K7GIL-1*,N6EX-4*:'-_jl"k/]"=j}
$GPWPL,3430.44,N,11707.78,W,KE6IYC-2*26
$PGRMW,KE6IYC-2,902,00B0, *42

KE6IYC-2>S4SPTT,K7GIL-1*,W6SCE-10*:'-_jl"k/]"=j}
$GPWPL,3430.44,N,11707.78,W,KE6IYC-2*26
$PGRMW,KE6IYC-2,902,00B0, *42

N6QFD-9>GPSLJ,WIDE2-2:$GPRMC,014444,A,3409.0147,N,11809.2303,W,39.2,62.0,231105,13.5,E,A*38

$GPWPL,3409.01,N,11809.23,W,N6QFD-9*69
$PGRMW,N6QFD-9,0,00AA,*50

N6XQY-12>GPSLJ,RELAY*,WIDE2-2:$GPRMC,014440.81,A,3346.4556,N,11801.1698,W,54.5,090.2,231105,13.,E*70
$GPWPL,3346.45,N,11801.16,W,N6XQY-12*52
$PGRMW,N6XQY-12,0,00AA,*69

N6XQY-12>GPSLJ,N6EX-4*:$GPRMC,014440.81,A,3346.4556,N,11801.1698,W,54.5,090.2,231105,13.,E*70
$GPWPL,3346.45,N,11801.16,W,N6XQY-12*52
$PGRMW,N6XQY-12,0,00AA,*69

N6QFD-9>GPSLJ,N6EX-1*:$GPRMC,014444,A,3409.0147,N,11809.2303,W,39.2,62.0,231105,13.5,E,A*38

$GPWPL,3409.01,N,11809.23,W,N6QFD-9*69
$PGRMW,N6QFD-9,0,00AA,*50

N6XQY-12>GPSLJ,RELAY*,N6EX-1*:$GPRMC,014440.81,A,3346.4556,N,11801.1698,W,54.5,090.2,231105,13.,E*70
$GPWPL,3346.45,N,11801.16,W,N6XQY-12*52
$PGRMW,N6XQY-12,0,00AA,*69

AE6MP>SS5SPS-2,WIDE2-2:`.^5p_U>/"4=}
$GPWPL,3353.03,N,11806.25,W,AE6MP*7A
$PGRMW,AE6MP,38,00AA,*7B

AE6MP>SS5SPS-2,N6EX-1*:`.^5p_U>/"4=}
$GPWPL,3353.03,N,11806.25,W,AE6MP*7A
$PGRMW,AE6MP,38,00AA,*7B

N6XQY-12>GPSLJ,RELAY*,W6SCE-10*:$GPRMC,014440.81,A,3346.4556,N,11801.1698,W,54.5,090.2,231105,13.,E*70
$GPWPL,3346.45,N,11801.16,W,N6XQY-12*52
